cod_localidad,IdProvincia,IdDepartamento,Observaciones,Categoría,SubCategoria,Provincia,Departamento,Localidad,Nombre,Dirección,Piso,CP,cod_area,telefono,Mail,Web,Información adicional,Latitud,Longitud,TipoLatitudLongitud,Fuente,tipo_gestion,tipo_organismo,organismo,redes,Temática,año_actualizacion
06035010,06,06035,,Bibliotecas Especializadas,,Buenos Aires,Avellaneda,Avellaneda,Biblioteca Central De La Universidad De Avellaneda,España 350 esq. Colón,,B1870BWH,11,42292484,biblioteca@undav.edu.ar ,http://www.undav.edu.ar/,,-34.6626568,-58.3717300,Localización precisa,RECIARIA,Público,Universidad,UNDAV,CAICYT // RUNCOB,Ciencias Sociales y Humanidades / Ciencias de la Salud / Ciencia y Tecnología / Arte e Historia,2019
06035010,06,06035,,Bibliotecas Especializadas,,Buenos Aires,Avellaneda,Avellaneda,Biblioteca Del Departamento Judicial Avellaneda-Lanús. Suprema Corte De Justicia. Departamento Judicial De Lomas De Zamora,Av. Mitre 2617,,1872,,,biblioteca-av@jusbuenosaires.gov.ar / mslacorazza@jusbuenosaires.gov.ar,http://www.scba.gov.ar/biblioteca/default.asp,,-34.6761729,-58.3484731,Localización precisa,RECIARIA,Público,Justicia,,BibliotecasJuriRed,Derecho y Ciencias Jurídicas,2019
06035010,06,06035,,Bibliotecas Especializadas,,Buenos Aires,Avellaneda,Avellaneda,Centro De Documentación Y Hemeroteca,Laprida 193,,,11,2221814 int. 121,amave@pccp.com.ar,,,-34.6623100,-58.3601780,Localización precisa,RECIARIA,Privado,Asociación,Asociacion Medica De Avellaneda,BIBLIOMED,Medicina,2019
06035010,06,06035,,Bibliotecas Especializadas,,Buenos Aires,Avellaneda,Avellaneda,"Escuela Primaria N° 14 ""Domingo F. Sarmiento""",Aldecoa 821,,1870,,,enro@intercom.com.ar,,,-34.6637965,-58.3824716,Localización precisa,RECIARIA,Público,Escuela,,REDFEDBNM-MEDAR/AM,Educación,2019
06035010,06,06035,,Bibliotecas Especializadas,,Buenos Aires,Avellaneda,Villa Domínico,Biblioteca - Facultad Regional Avellaneda - Universidad Tecnológica Nacional,San Vicente 206,,1874,11,43530220 int.110,biblioteca@fra.utn.edu.ar,http://www.fra.utn.edu.ar/index.php?banner=no&idn=523&id=522&mainid=521&submenu=0,,-34.6949370,-58.3259520,Localización precisa,RECIARIA,Público,Universidad,Facultad Regional Avellaneda - Universidad Tecnológica Nacional,SIU,Multidiciplinaria,2019
06035010,06,06035,,Bibliotecas Especializadas,,Buenos Aires,Avellaneda,Villa Domínico,Prof. Oberdan Caletti,Ramón Franco 5050,,1874,,,biblioteca@fra.utn.edu.ar,http://www.fra.utn.edu.ar/?banner=no&id=522&mainid=521&idn=522,,-34.6948730,-58.3269925,Localización precisa,RECIARIA,Público,Universidad,,Red UTN,Educación,2019
06049020,06,06049,,Bibliotecas Especializadas,,Buenos Aires,Azul,Azul,Biblioteca - Centro De Estudios E Investigaciones Jurídicas Y Sociales,Bolívar 481,,7300,2281,427277,biblioteca@derecho-azul.org.ar,,,-36.7792160,-59.8636802,Localización precisa,RECIARIA,Público,Universidad,Centro De Estudios E Investigaciones Jurídicas Y Sociales,UNIRED,Ciencias Sociales,2019
06049020,06,06049,,Bibliotecas Especializadas,,Buenos Aires,Azul,Azul,Biblioteca del Campus Azul. Facultad de Derecho. UNICEN,República de Italia 780,,7300,2281,433291 int.216,biblio@faa.unicen.edu.ar,http://www.der.unicen.edu.ar/biblio/bibliotecaHome.html,,-36.7689499,-59.8801154,Localización precisa,RECIARIA,Público,Universidad,,BibliotecasJuriRed,Derecho y Ciencias Jurídicas,2019
06049020,06,06049,,Bibliotecas Especializadas,,Buenos Aires,Azul,Azul,Biblioteca Departamental De Azul. Suprema Corte De Justicia. Departamento Judicial De Azul,Av. Pte. Perón 525,P.B.,7300,2281,422680,biblioteca-az@jusbuenosaires.gov.ar / acombessies@jusbuenosaires.gov.ar,http://www.scba.gov.ar/biblioteca/BiblioDirecciones.asp,,-36.7817939,-59.8654285,Localización precisa,RECIARIA,Público,Justicia,,BibliotecasJuriRed,Derecho y Ciencias Jurídicas,2019
06049020,06,06049,,Bibliotecas Especializadas,,Buenos Aires,Azul,Azul,Biblioteca Emilia Betinelli,Av. Mitre 410,,7300,2281,429295,museolopezclaro@yahoo.com.ar; museoazul@gmail.com,www.museolopezclaro.com.ar,,-33.8954537,-60.5709625,Localización precisa,RECIARIA,Público,Gubernamental,Museo Lopez Claro,VITRUVIO,"Arquitectura, Artes, Diseño y Urbanismo",2019
06049020,06,06049,,Bibliotecas Especializadas,,Buenos Aires,Azul,Azul,Biblioteca. Colegio De Abogados De Azul,Av. Pte. Perón 514,P.B.,7300,2281,424516,biblioteca@colegioabogadosazul.org.ar / bibliotecaazul@speedy.com.ar,http://www.colegioabogadosazul.org.ar/servicios/biblioteca,,-36.7816377,-59.8656232,Localización precisa,RECIARIA,Privado,Asociación,,BibliotecasJuriRed,Derecho y Ciencias Jurídicas,2019
06049020,06,06049,,Bibliotecas Especializadas,,Buenos Aires,Azul,Azul,"Escuela Normal Superior ""Bernardino Rivadavia""",Av. 25 de Mayo,,7300,,,escuelanormalazul@yahoo.com.ar,,,-36.7868440,-59.8689633,Localización precisa,RECIARIA,Público,Terciario,,REDFEDBNM-MEDAR/AM,Educación,2019
06056010,06,06056,,Bibliotecas Especializadas,,Buenos Aires,Bahia Blanca,Bahía Blanca,Asociación Bernardino Rivadavia Biblioteca Popular,Av. Colón 31,,8000,291,4554055,abr@abr.org.ar,www.abr.org.ar,,-38.7188430,-62.2671750,Localización precisa,RECIARIA,Privado,Asociación,,REDFEDBNM-BP,Educación,2019
06056010,06,06056,,Bibliotecas Especializadas,,Buenos Aires,Bahia Blanca,Bahía Blanca,Biblioteca - Centro Científico Tecnológico Bahía Blanca (Cct-CONICET-Bb) (Ex Centro Regional De Investigaciones Básicas Y Aplicadas De Bahía Blanca),Ed. E3 Complejo La Carrindanga.Km7,,8000,291,4861666,postmaster@criba.edu.ar,http://www.bahiablanca-conicet.gob.ar/,,-38.6837850,-62.2429700,Localización precisa,RECIARIA,Público,Gubernamental,,CAICYT,Ciencia y Tecnología,2019
06056010,06,06056,,Bibliotecas Especializadas,,Buenos Aires,Bahia Blanca,Bahía Blanca,Biblioteca - CONICET - Centro De Recursos Naturales Renovables De La Zona Semiárida,Edificio E3 Complejo de La Carrindanga Km7,,B8000WAH,291,4861124,cerzos@criba.edu.ar,http://www.cerzos-conicet.gob.ar/,,-38.6837264,-62.2426977,Localización precisa,RECIARIA,Público,Gubernamental,,CAICYT,Ciencia y Tecnología,2019
06056010,06,06056,,Bibliotecas Especializadas,,Buenos Aires,Bahia Blanca,Bahía Blanca,Biblioteca - CONICET - Instituto De Investigaciones Bioquímicas De Bahía Blanca,Camino de La Carrindanga Km 7,,B8000FWB,291,4861201,inbibb@criba.edu.ar,http://www.inibibb-conicet.gob.ar/www.inibibb-conicet.gob.ar/index.html,,-38.6898301,-62.2604765,Localización precisa,RECIARIA,Público,Gubernamental,,CAICYT,Ciencia y Tecnología,2019
06056010,06,06056,,Bibliotecas Especializadas,,Buenos Aires,Bahia Blanca,Bahía Blanca,Biblioteca - Facultad Regional Bahía Blanca - Universidad Tecnológica Nacional (UTN),11 de Abril 461,5,8000,291,4555220 int.115,mjgv@frbb.utn.edu.ar,http://biblioteca.frbb.utn.edu.ar/,,-38.7101930,-62.2646990,Localización precisa,RECIARIA,Público,Universidad,Facultad Regional Bahía Blanca - Universidad Tecnológica Nacional (Utn),SIU,Multidiciplinaria,2019
06056010,06,06056,,Bibliotecas Especializadas,,Buenos Aires,Bahia Blanca,Bahía Blanca,Biblioteca - Iado-Conicet-Uns (Instituto Argentino De Oceanografía),Camino de La Carrindanga Km 7,,,291,4573497 int.140,bibiado@criba.edu.ar  delucchi@criba.edu.ar,http://iado.criba.edu.ar/web/biblioteca.php,,-38.6837260,-62.2426980,Localización precisa,RECIARIA,Público,Gubernamental,Iado-Conicet-Uns (Instituto Argentino De Oceanografía),ASFIS-REDIPES,Ciencias Acuáticas y Pesqueras,2019
06056010,06,06056,,Bibliotecas Especializadas,,Buenos Aires,Bahia Blanca,Bahía Blanca,Biblioteca - Universidad Nacional Del Sur - Departamento De Agronomía,Altos Del Palihuec. C. 51,,8000,291,4595112,bibagro@uns.edu.ar,http://servicios.uns.edu.ar/institucion/deptos/ver_contenidos.asp,,-38.7183100,-62.2663470,Localización precisa,RECIARIA,Público,Universidad,,CAICYT,Ciencia y Tecnología,2019
06056010,06,06056,,Bibliotecas Especializadas,,Buenos Aires,Bahia Blanca,Bahía Blanca,"Biblioteca ""Dr. Uros Bacic"" - Departamento De Economía",12 de Octubre 1198,P.B.,B8000CTV,291,4595113,najose@uns.edu.ar,http://bibliotecaeconomiauns.blogspot.com.ar/,,-38.7002079,-62.2687181,Localización precisa,RECIARIA,Público,Universidad,,CAICYT,Ciencia y Tecnología,2019
06056010,06,06056,,Bibliotecas Especializadas,,Buenos Aires,Bahia Blanca,Bahía Blanca,"Biblioteca Central ""Nicolás Matijevic"". Universidad Nacional Del Sur",Av. Alem 1253,,B8000CPB,291,4595101 int.2101,bc@uns.edu.ar,http://bc.uns.edu.ar/,,-38.7022930,-62.2700640,Localización precisa,RECIARIA,Público,Universidad,,BibliotecasJuriRed / REDIAB / BIBLIOMED / BIPAT / RENICS / SIU / UNIRED / CAICYT,Derecho y Ciencias Jurídicas / Bibliotecas de universidadespúblicas / Medicina / Multidiciplinaria /  Ciencias Sociales / Ciencia y Tecnología,2019
06056010,06,06056,,Bibliotecas Especializadas,,Buenos Aires,Bahia Blanca,Bahía Blanca,Biblioteca De Ciencias Agrarias,Complejo Palihue,,8000,291,4595112,bibagro@uns.edu.ar,http://www.criba.edu.ar/bibagro/,,-38.6954754,-62.2564723,Localización precisa,RECIARIA,Público,Universidad,Universidad Nacional Del Sur. Departamento De Ciencias Agrarias,ASFIS-REDIPES / SIDALC,Ciencias Acuáticas y Pesqueras / Ciencias Agronómicas y Forestales,2019
06056010,06,06056,,Bibliotecas Especializadas,,Buenos Aires,Bahia Blanca,Bahía Blanca,Biblioteca De Humanidades Arturo Marasso,12 de Octubre 1198,P.B.,B8000CTV,291,4595114,bmarasso@uns.edu.ar,http://www.bam.uns.edu.ar/,,-38.7002010,-62.2687960,Localización precisa,RECIARIA,Público,Universidad,,CAICYT,Ciencia y Tecnología,2019
06056010,06,06056,,Bibliotecas Especializadas,,Buenos Aires,Bahia Blanca,Bahía Blanca,Biblioteca del Arsenal Aeronaval de la Base Comandante Espora,Base Aeronaval Comandante Espora,,8107,291,4810290 int.3042,arce@ara.mil.ar,,,-38.7369260,-62.1652080,Localización precisa,RECIARIA,Público,Fuerzas Armadas,,REBIFA,Fuerzas Armadas,2019
06056010,06,06056,,Bibliotecas Especializadas,,Buenos Aires,Bahia Blanca,Bahía Blanca,Biblioteca del Museo de la Aviación Naval,Museo de la Aviación Naval Argentina. Base Aeronaval Comandante Espora,,8107,291,4810290 int. 3175,museo_aeronaval@yahoo.com.ar,www.museoaeronaval.ara.mil.ar,,-38.7369260,-62.1652080,Localización precisa,RECIARIA,Público,Fuerzas Armadas,,REBIFA,Fuerzas Armadas,2019
06056010,06,06056,,Bibliotecas Especializadas,,Buenos Aires,Bahia Blanca,Bahía Blanca,Biblioteca Dr. Antonio Monteiro,Av. Alem 1253,P.B.,B8000CPB,291,4595116,bibima@criba.edu.ar; sinmabb@criba.edu.ar,http://catalis.uns.edu.ar/cgi-bin/catalis_pack_demo_devel/wxis?IsisScript=opac/xis/opac.xis&db=bibima,,-38.7022930,-62.2700640,Localización precisa,RECIARIA,Público,Universidad,,CAICYT,Ciencia y Tecnología,2019
06056010,06,06056,,Bibliotecas Especializadas,,Buenos Aires,Bahia Blanca,Bahía Blanca,Biblioteca Salesiana de Educación Superior ,Vieytes 286,Subsuelo,8000,291,4562117,biblioteca@donbosco.org.ar ,http://juan23.edu.ar/biblioteca/,,-38.7177170,-62.2712930,Localización precisa,RECIARIA,Privado,Universidad,Instituto Superior Juan XXIII / Universidad Salesiana,AMICUS,Bibliotecología y Ciencias de la Información,2019
06056010,06,06056,,Bibliotecas Especializadas,,Buenos Aires,Bahia Blanca,Bahía Blanca,Biblioteca. Cámara Federal de Apelaciones de Baha Blanca,Mitre 60/62,,8000,291,4522713,cfbahiablanca@pjn.gov.ar,,,-34.6329045,-58.4806181,Localización precisa,RECIARIA,Público,Justicia,,BibliotecasJuriRed,Derecho y Ciencias Jurídicas,2019
06056010,06,06056,,Bibliotecas Especializadas,,Buenos Aires,Bahia Blanca,Bahía Blanca,Biblioteca. Colegio De Abogados Y Procuradores De Bahía Blanca,Sarmiento 54,P.B.,8000,291,4551750,bibliocabb@bvconline.com.ar / cabb@bvconline.com.ar,http://www.cabb.org.ar/biblioteca/nu-inicio.php,,-38.7166602,-62.2666073,Localización precisa,RECIARIA,Privado,Asociación,,BibliotecasJuriRed,Derecho y Ciencias Jurídicas,2019
06056010,06,06056,,Bibliotecas Especializadas,,Buenos Aires,Bahia Blanca,Bahía Blanca,Biblioteca. Suprema Corte De Justicia. Departamento Judicial De Bahía Blanca,Estomba 32/34,P.B.,8000,291,4563600,biblioteca-bb@jusbuenosaires.gov.ar / mjgarciaventureyra@jusbuenosaires.gov.ar,http://www.scba.gov.ar/biblioteca/BiblioDirecciones.asp,,-38.7181337,-62.2669955,Localización precisa,RECIARIA,Pública,Justicia,,BibliotecasJuriRed,Derecho y Ciencias Jurídicas,2019
06056010,06,06056,,Bibliotecas Especializadas,,Buenos Aires,Bahia Blanca,Bahía Blanca,Centro De Documentación Bibliotecológica,Av. Alem 1253,,B8000CPB,291,4528035 Int. 255,unsbc@criba.edu.ardephum@criba.edu.ar,http://bc.uns.edu.ar/,,-38.7022930,-62.2700640,Localización precisa,RECIARIA,Público,Universidad,,CAICYT,Ciencia y Tecnología,2019
06056010,06,06056,,Bibliotecas Especializadas,,Buenos Aires,Bahia Blanca,Bahía Blanca,Centro De Información Bibliográfica,12 de Octubre 1198,,8000,291,4595113,vsanchez@criba.edu.ar,www.server-int.uns.edu.ar/adm/adm.htm,,-38.7002010,-62.2687960,Localización precisa,RECIARIA,Público,Universidad,Universidad Nacional Del Sur. Departamento De Ciencias De La Administración,UNIRED,Ciencias Sociales,2019
06056010,06,06056,,Bibliotecas Especializadas,,Buenos Aires,Bahia Blanca,Bahía Blanca,Centro De Información Bibliográfica,12 de Octubre y San Juan,P.B.,8000,291,4595113 INT. 2710,najose@criba.edu.ar,www.server-int.uns.edu.ar/eco/eco.htm,,-38.7015270,-62.2677230,Localización precisa,RECIARIA,Público,Universidad,Departamento de Economia. Universidad Nacional del Sur,UNIRED,Ciencias Sociales,2019
06056010,06,06056,,Bibliotecas Especializadas,,Buenos Aires,Bahia Blanca,Bahía Blanca,Centro De Información Y Documentación Dr. Héctor Urquiola,Gorriti 770,,8000,291,553900,rbambb@criba.edu.ar; ambb@bblanca.com.ar; sec_cientifica@ambb.com.ar,www.ambb.com.ar,,-38.7234700,-62.2789550,Localización precisa,RECIARIA,Privado,Asociación,Asociación Médica de Bahía Blanca,RENICS / BIBLIOMED,Medicina,2019
06056010,06,06056,,Bibliotecas Especializadas,,Buenos Aires,Bahia Blanca,Bahía Blanca,Profesor Ing. Duilio S. Marchesi,11 de Abril 461,1,B8000LMI,,,mjgv@frbb.utn.edu.ar,http://www.frbb.utn.edu.ar/frbb/index.php?option=com_content&view=article&id=667&Itemid=890,,-38.7103520,-62.2643690,Localización precisa,RECIARIA,Público,Universidad,,Red UTN,Educación,2019
06056010,06,06056,,Bibliotecas Especializadas,,Buenos Aires,Bahia Blanca,Bahía Blanca,Servicio De Información Y Documentación,Camino de La Carrindanga Km 7,,B8000WAH,291,4861700 int 229,biblioteca@plapiqui.edu.ar,http://www.plapiqui.edu.ar/biblioteca/,,-38.6837850,-62.2429700,Localización precisa,RECIARIA,Público,Gubernamental,,CAICYT,Ciencia y Tecnología,2019
06056010,06,06056,,Bibliotecas Especializadas,,Buenos Aires,Bahia Blanca,Bahía Blanca,UNISAL Universidad Salesiana Argentina,Gorriti 1249,,B8000GDC,,,info@unisal.edu.ar,http://www.unisal.edu.ar,,-38.7274071,-62.2841446,Localización precisa,RECIARIA,Privado,Universidad,,BUCOC,Multidiciplinaria,2019
06056010,06,06056,,Bibliotecas Especializadas,,Buenos Aires,Bahia Blanca,Villa Espora,Biblioteca Contraalmirante Gregorio A. Portillo,Base Aeronaval Comandante Espora,,8107,291,810290 int.3899,bibliotecafae2@gmail.com y alefullana@gmail.com,,,-38.7269440,-62.1669440,Localización precisa,RECIARIA,Público,Fuerzas Armadas,,REBIFA,Fuerzas Armadas,2019
06063010,06,06063,,Bibliotecas Especializadas,,Buenos Aires,Balcarce,Balcarce,Biblioteca Unidad Integrada Balcarce,Ruta 226 km 73 1/2 C.C. 276,,B7620WAD,2266,439100 Int. 310,bibbalc@balcarce.inta.gov.ar,http://inta.gob.ar/unidades/721000/biblioteca-balcarce/view,,-37.7708990,-58.3081287,Localización precisa,RECIARIA,Público,Gubernamental,,CAICYT,Ciencia y Tecnología,2019
06063010,06,06063,,Bibliotecas Especializadas,,Buenos Aires,Balcarce,Balcarce,Centro Documental -Unidad Integrada Balcarce EEA-INTA/Fca-Unmdp,Ruta Nacional 226 Km 73,,7620,2266,439101,eeabalcarce.cd@inta.gob.ar,http://inta.gob.ar/unidades/721000/biblioteca-balcarce,,-37.8714480,-58.1428580,Localización precisa,RECIARIA,Público,Gubernamental,,CDINTA,"Ciencias Agronómicas, Agropercuarias y Veterinaria",2019
06091010,06,06091,,Bibliotecas Especializadas,,Buenos Aires,Berazategui,Berazategui,Biblioteca Instituto Argentino De Radioastronomía - Instituto Argentino De Radioastronomía - Conicet,Camino Gral. Belgrano Km. 40,,1884,221,4254909 Int. 126,bc@uns.edu.ar,http://www.iar-conicet.gov.ar/biblio/,,-34.8136100,-58.2033200,Localización precisa,RECIARIA,Público,Universidad,Instituto Argentino De Radioastronomía Iar-Conicet,SIU / CAICYT,Multidiciplinaria / Ciencia y Tecnología,2019
06126030,06,06126,,Bibliotecas Especializadas,,Buenos Aires,Campana,Campana,Biblioteca Departamental. Cámara Departamento Judicial Zárate- Campana,Virrey del Pino 819,,CPB2804BXQ,3489,426552,biblioteca-zc@jusbuenosaires.gov.ar / jmwilliams@jusbuenosaires.gov.ar,http://www.scba.gov.ar/biblioteca/BiblioDirecciones.asp,,-34.1793149,-58.9609830,Localización precisa,RECIARIA,Público,Justicia,,BibliotecasJuriRed,Derecho y Ciencias Jurídicas,2019
06126030,06,06126,,Bibliotecas Especializadas,,Buenos Aires,Campana,Campana,Biblioteca Ing. José María Arenaza,San Martín 1171,,,3489,420400 INT. 123,biblioteca@frd.utn.edu.ar,,,-34.1787510,-58.9617290,Localización precisa,RECIARIA,Público,Universidad,Universidad Tecnológica Nacional. Facultad Regional Delta,BIBLIOMED,Medicina,2019
06126030,06,06126,,Bibliotecas Especializadas,,Buenos Aires,Campana,Campana,Biblioteca Regional,Bertolini 183,,2804,3489,438132,crsbiblio@unlu.edu.ar,,,-34.1745550,-58.9461110,Localización precisa,RECIARIA,Público,Universidad,UNLu - Universidad Nacional De Luján,UNID,Multidiciplinaria,2019
06126030,06,06126,,Bibliotecas Especializadas,,Buenos Aires,Campana,Campana,Estación Experimental Agropecuaria Delta Del Paraná,Paraná de Las Palmas C. L. Comas,,B2804WAA,3489,460075,bibliodelta@correo.inta.gov.ar / eeadelta.cd@inta.gob.ar,http://inta.gob.ar/unidades/714000/biblioteca-delta-del-parana,,-34.1633350,-58.9592640,Localización precisa,RECIARIA,Público,Gubernamental,,CAICYT / COINTA,"Ciencia y Tecnología / Ciencias Agronómicas, Agropercuarias y Veterinaria",2019
06126030,06,06126,,Bibliotecas Especializadas,,Buenos Aires,Campana,Campana,Ing. José María Arenaza,Salta 277,,2804,,,emeier@frd.utn.edu.ar,http://www.frd.utn.edu.ar/?q=biblioteca_delta,,-34.1884128,-58.9480656,Localización precisa,RECIARIA,Público,Universidad,,Red UTN,Educación,2019
06134040,06,06134,,Bibliotecas Especializadas,,Buenos Aires,Canuelas,Villa Gobernador Udaondo,Biblioteca - Instituto Nacional De Tecnología Agropecuaria Inta -Centro De Investigaciones En Ciencias Veterinarias Y Agronómicas (Cicvya),Las Cabañas Y de Los Reseros,,1712,,,bibl@cicv.inta.gov.ar,http://www.inta.gov.ar/iir/info/biblioteca.htm,,-34.6126420,-58.6745010,Localización precisa,RECIARIA,Público,Gubernamental,Instituto Nacional De Tecnología Agropecuaria Inta  -Centro De Investigaciones En Ciencias Veterinarias Y Agronómicas (Cicvya),BIBLIOMED,Medicina,2019
06134040,06,06134,,Bibliotecas Especializadas,,Buenos Aires,Canuelas,Villa Gobernador Udaondo,Biblioteca - INTA - Centro De Investigaciones En Ciencias Agropecuarias,Las Cabañas Y Los Reseros O Casilla 25,,B1712WAA,11,46211683,biblcicv@cicv.inta.gov.ar,http://inta.gob.ar/ciap,,-34.6126420,-58.6745010,Localización precisa,RECIARIA,Público,Gubernamental,,CAICYT,Ciencia y Tecnología,2019
06134040,06,06134,,Bibliotecas Especializadas,,Buenos Aires,Canuelas,Villa Gobernador Udaondo,Biblioteca - INTA - Instituto De Recursos Biológicos,Las Cabañas Y Los Reseros S/N - Villa Udaondoc. C. 25,,B1712WAA,11,46210840,breita@cirn.inta.gov.ar,http://inta.gob.ar/instderecursosbiologicos,,-34.6250420,-58.6714710,Localización precisa,RECIARIA,Público,Gubernamental,,CAICYT,Ciencia y Tecnología,2019
06134040,06,06134,,Bibliotecas Especializadas,,Buenos Aires,Canuelas,Villa Gobernador Udaondo,Biblioteca Instituto Tecnología De Alimentos - INTA - Instituto Nacional De Tecnología Agropecuaria,De Los Reseros Y Villa Udaondo S/N,,1712,11,46210446,clamberto@cnia.inta.gov.ar,http://inta.gob.ar/unidades/221000/biblioteca-tecnologia-alimentos,,-34.6250420,-58.6714710,Localización precisa,RECIARIA,Público,Gubernamental,,CAICYT,Ciencia y Tecnología,2019
06134040,06,06134,,Bibliotecas Especializadas,,Buenos Aires,Canuelas,Villa Gobernador Udaondo,Centro De Documentación E Información Del Cirn,Las Cabañas Y Los Reseros. Villa Udaondo,,1712,11,44811688,abreit@castelar.inta.gov.arruguet@castelar.inta.gov.arruguet@cirn.inta.gov.ar,http://inta.gob.ar/unidades/210000/biblioteca-del-cirn,,-34.6250420,-58.6714710,Localización precisa,RECIARIA,Público,Gubernamental,,CAICYT,Ciencia y Tecnología,2019
06161010,06,06161,,Bibliotecas Especializadas,,Buenos Aires,Carmen de Areco,Carmen de Areco,"Escuela N° 1 ""José de San Martín""",San Martín 510,,6725,,,mmiriarte89@hotmail.com,,,-34.3764553,-59.8219874,Localización precisa,RECIARIA,Público,Escuela,,REDFEDBNM-MEDAR/AM,Educación,2019
06224010,06,06224,,Bibliotecas Especializadas,,Buenos Aires,Chivilcoy,Chivilcoy,Biblioteca Regional,El Grito de Alerta 110,,,2346,424593,mcanepa@unlu.edu.ar,,,-34.9180658,-59.9972478,Localización precisa,RECIARIA,Público,Universidad,UNLu - Universidad Nacional De Luján,UNID,Multidiciplinaria,2019
06182030,06,06182,,Bibliotecas Especializadas,,Buenos Aires,Coronel de Marina L. Rosales,Base Naval Puerto Belgrano,Biblioteca de la Escuela de Oficiales de la Armada,Av. a la Estación S/N,,8111,2932,486611 int.6611,biblioteca@esoa.edu.ar,www.esoa.edu.ar,,-38.8904420,-62.0980420,Localización precisa,RECIARIA,Público,Fuerzas Armadas,,REBIFA,Fuerzas Armadas,2019
06182030,06,06182,,Bibliotecas Especializadas,,Buenos Aires,Coronel de Marina L. Rosales,Base Naval Puerto Belgrano,Biblioteca de la Escuela de Suboficiales de la Armada,Base Naval Puerto Belgrano,,8111,2932,489890,biblio_ro@hotmail.com,,,-38.8859776,-62.0828062,Localización precisa,RECIARIA,Público,Fuerzas Armadas,,REBIFA,Fuerzas Armadas,2019
06182030,06,06182,,Bibliotecas Especializadas,,Buenos Aires,Coronel de Marina L. Rosales,Base Naval Puerto Belgrano,Biblioteca del Hospital Naval Puerto Belgrano,Base Naval Puerto Belgrano,,8111,11,489532 int.9532,bibliotecahnpb@hotmail.com,,,-38.8904420,-62.0980420,Localización precisa,RECIARIA,Público,Fuerzas Armadas,,REBIFA,Fuerzas Armadas,2019
06182030,06,06182,,Bibliotecas Especializadas,,Buenos Aires,Coronel de Marina L. Rosales,Puerto Belgrano,Biblioteca de la Escuela de Técnicas y Tácticas Navales,Puerto Belgrano,,8111,2932,486858 int.6848,biblioestt@yahoo.com.ar y amiarroz@yahoo.com.ar,,,-38.8842683,-62.0645702,Localización precisa,RECIARIA,Público,Fuerzas Armadas,,REBIFA,Fuerzas Armadas,2019
06238010,06,06238,,Bibliotecas Especializadas,,Buenos Aires,Dolores,Dolores,"Biblioteca Departamental Judicial De Dolores ""Dr. Julio M. Facio"". Cámara Departamental Judicial De Dolores",Belgrano 1415,1,7100,2245,447089,biblioteca-do@jusbuenosaires.gov.ar / lcowes@jusbuenosaires.gov.ar,http://www.scba.gov.ar/biblioteca/BiblioDirecciones.asp,,-36.3167842,-57.6772465,Localización precisa,RECIARIA,Público,Justicia,,BibliotecasJuriRed,Derecho y Ciencias Jurídicas,2019
06238010,06,06238,,Bibliotecas Especializadas,,Buenos Aires,Dolores,Dolores,Biblioteca. Colegio De Abogados De Dolores,Belgrano 160,1,7100,2245,441592,colabdol@speedy.com.ar,http://www.colabdol.com.ar/biblioteca.htm,,-36.3165891,-57.6773528,Localización precisa,RECIARIA,Privado,Asociación,,BibliotecasJuriRed,Derecho y Ciencias Jurídicas,2019
06238010,06,06238,,Bibliotecas Especializadas,,Buenos Aires,Dolores,Dolores,"Escuela Normal Superior ""Dr. Victoriano E. Montes""",Crámer 50,,7100,,,enro@intercom.com.ar,,,-36.3150941,-57.6750453,Localización precisa,RECIARIA,Público,Terciario,,REDFEDBNM-MEDAR/AM,Educación,2019
06245010,06,06245,,Bibliotecas Especializadas,,Buenos Aires,Ensenada,Ensenada,Biblioteca Contraalmirante Manuel José García Mansilla,Río Santiago,,1927,221,4680330 int.4839,biblioteca@escuelanaval.mil.ar y secretaria@escuelanaval.mil.ar,www.escuelanaval.mil.ar,,-34.8545600,-57.9016640,Localización precisa,RECIARIA,Público,Universidad,,REBIFA,Fuerzas Armadas,2019
06245010,06,06245,,Bibliotecas Especializadas,,Buenos Aires,Ensenada,Ensenada,Centro De Cocumentacione Información En Trasplante Cedit,Calle 129 Entre 51 Y 53,,1925,221,4276070 INT. 211,cedit@cucaiba.gba.gov.ar,www.cucaiba.gba.gv.ar,,-34.8963890,-57.9290960,Localización precisa,RECIARIA,Público,Gubernamental,Centro Unico Coordinador De Ablacion E Implante De La Pcia. De Buenos Aires,RENICS,Medicina,2019
06270010,06,06270,,Bibliotecas Especializadas,,Buenos Aires,Ezeiza,Ezeiza,Biblioteca del Instituto de Formación Ezeiza,Autopista Tte Gral. Ricchieri Km 25.5,,B1802AYA,11,44800396,bibliotecaife@yahoo.com,,,-34.8150040,-58.5348280,Localización precisa,RECIARIA,Público,Fuerzas Armadas,,REBIFA,Fuerzas Armadas,2019
06270010,06,06270,,Bibliotecas Especializadas,,Buenos Aires,Ezeiza,Ezeiza,Biblioteca. Autoridad Regulatoria Nuclear. ARN.,Presbítero Juan González y Aragón 15,,B1802AYA,11,41258481,biblioteca@arn.gob.ar,http://www.arn.gob.ar/es/biblioteca/sobre-la-biblioteca,,-34.8219574,-58.5759734,Localización precisa,RECIARIA,Público,Gubernamental,,BibliotecasJuriRed,Derecho y Ciencias Jurídicas,2019
06270010,06,06270,,Bibliotecas Especializadas,,Buenos Aires,Ezeiza,Ezeiza,"Centro de Documentación ""María Isabel González""",Presbítero Juan González y Aragón 15,,B1802AYA,11,67798431,biblioteca@cae.cnea.gov.ar,http://urq1.cnea.gov.ar/IdEN/BIBLIO/index1.htm,,-34.8083800,-58.5674130,Localización precisa,RECIARIA,Público,Gubernamental,,CAICYT / INIS-RRIAN,Ciencia y Tecnología / Energía Nuclear,2019
06270010,06,06270,,Bibliotecas Especializadas,,Buenos Aires,Ezeiza,Ezeiza,Centro De Información Y Documentación - Caris,Au Ezeiza - Cañuelas. Tramo J. Newbery Km 1620,,B1804GEZ,11,44804500 int.2441,caris@ina.gov.ar,http://www.ina.gov.ar/ctua/index.php?ctua=6,,-34.7960850,-58.5516380,Localización precisa,RECIARIA,Público,Gubernamental,,REDAM,Recursos hídricos ; abastecimiento de agua; calidad ambiental; contaminación del aire/ del suelo/ del agua; fuentes de energía; ingeniería sanitaria y ambiental; aguas residuales;residuos sólidos y peligrosos; salud ambiental; saneamiento; legislación,2019
06270010,06,06270,,Bibliotecas Especializadas,,Buenos Aires,Ezeiza,Ezeiza,Departamento De Información Documental Y Publicaciones Jorge Newbery.,Empalme Ruta 205 KM 2.5,,B1804AYA,11,44804500,postmaster@incyth.edu.ar; ina@ina.gov.ar,http://www.ina.gov.ar,,-34.7876050,-58.5205880,Localización precisa,RECIARIA,Público,Gubernamental,Instituto Nacional Del Agua Y Del Ambiente,UNIRED,Ciencias Sociales,2019
06274010,06,06274,,Bibliotecas Especializadas,,Buenos Aires,Florencio Varela,Florencio Varela,Biblioteca - Instituto De Limnología 'Dr. R.A. Ringuelet' Ilpla-Conicet,Av. Calchaqui KM 23.5,,1888,11,42758564 int.44,bibliote@ilpla.edu.ar; anpaggi@ilpla.edu.ar,http://www.ilpla.edu.ar/ilpla/biblioteca.php,,-34.7855820,-58.2572540,Localización precisa,RECIARIA,Público,Gubernamental,Instituto De Limnología 'Dr. R.A. Ringuelet'  Ilpla-Conicet,ASFIS-REDIPES / CAICYT,Ciencias Acuáticas y Pesqueras / Ciencia y Tecnología,2019
06274010,06,06274,,Bibliotecas Especializadas,,Buenos Aires,Florencio Varela,Florencio Varela,Biblioteca Central - UNAJ,Av. Calchaqui 6200,,1888,11,42756191,biblioteca@unaj.edu.ar; rdecima@unaj.edu.ar,http://www.unaj.edu.ar/bibliounaj,,-34.8281940,-58.2188930,Localización precisa,RECIARIA,Público,Universidad,UNAJ,RUNCOB,Ciencias Sociales y Humanidades / Ciencias de la Salud / Ciencia y Tecnología / Arte e Historia,2019
06329020,06,06329,,Bibliotecas Especializadas,,Buenos Aires,General Las Heras,General Las Heras,"Instituto ""San Luis Gonzaga""",Av. Villamayor 1010,,1741,,,islglasheras@gmail.com,,,-34.9231930,-58.9541572,Localización precisa,RECIARIA,Privado,Escuela,,REDFEDBNM-MEDAR/AM,Educación,2019
06357110,06,06357,,Bibliotecas Especializadas,,Buenos Aires,General Pueyrredon,Mar del Plata,Biblioteca - Centro Medico De Mar Del Plata,San Luis 1978,3,B7600DTP,223,4922040,biblioteca@centromedicomdp.org.ar; cmbib@cmmdp.com; coordinador@centromedicomdp.org.ar,www.centromedicomdp.org.ar/principal/beneficiosparasocios/biblioteca.aspx#,,-38.0011400,-57.5494460,Localización precisa,RECIARIA,Privado,Institución,Centro Medico De Mar Del Plata,RENICS,Medicina,2019
06357110,06,06357,,Bibliotecas Especializadas,,Buenos Aires,General Pueyrredon,Mar del Plata,Biblioteca - Clínica Privada Pueyrredón,Jujuy 2176,,7600,223,4992400,biblioteca@clinicapueyrredon.com,,,-37.9991470,-57.5579000,Localización precisa,RECIARIA,Privado,Hospital,Clínica Privada Pueyrredón,BIBLIOMED,Medicina,2019
06357110,06,06357,,Bibliotecas Especializadas,,Buenos Aires,General Pueyrredon,Mar del Plata,Biblioteca - Clínica Y Maternidad Colóní,Av. Colón 3629,,7600,223,4992656,colonddi@speedy.com.ar,www.clinica-colon.com.ar,,-37.9980870,-57.5605080,Localización precisa,RECIARIA,Privado,Hospital,Clínica Y Maternidad Colóní,BIBLIOMED,Medicina,2019
06357110,06,06357,,Bibliotecas Especializadas,,Buenos Aires,General Pueyrredon,Mar del Plata,Biblioteca - Facultad De Ciencias Agrarias - Inta Balcarce - Universidad Nacional De Mar Del Plata,Ruta 226. Km 73.5,,7620,2266,439100,mbazan@balcarce.inta.gov.ar,http://www.inta.gov.ar/balcarce/biblioteca/default.asp,,-37.9513580,-57.6354860,Localización precisa,RECIARIA,Público,Universidad,Facultad De Ciencias Agrarias - Inta Balcarce - Universidad Nacional De Mar Del Plata,SIDALC,Ciencias Agronómicas y Forestales,2019
06357110,06,06357,,Bibliotecas Especializadas,,Buenos Aires,General Pueyrredon,Mar del Plata,Biblioteca - Facultad De Ingeniería - Universidad Nacional De Mar Del Plata -,Juan B. Justo 4302,,B7608FDQ,,,intema@arcrida.edu.arbiblioteca@fi.mdp.edu.ar,http://www.fi.mdp.edu.ar/,,-38.0115630,-57.5809190,Localización precisa,RECIARIA,Público,Universidad,,CAICYT,Ciencia y Tecnología,2019
06357110,06,06357,,Bibliotecas Especializadas,,Buenos Aires,General Pueyrredon,Mar del Plata,Biblioteca - Fundación Para Investigaciones Biológicas (Fiba) Centro De Investigaciones Biológicas,Vieytes 3103,,7600,223,4748257,info@fiba.org.ar; fibamdq@infovia.com.ar,http://www.fiba.org.ar/biblioteca.htm,,-38.0176360,-57.5688030,Localización precisa,RECIARIA,Privado,Fundación,Fundación Para Investigaciones Biológicas (Fiba)  Centro De Investigaciones Biológicasí,BIBLIOMED,Medicina,2019
06357110,06,06357,,Bibliotecas Especializadas,,Buenos Aires,General Pueyrredon,Mar del Plata,Biblioteca - Fundación Para Investigaciones Biológicas Aplicadas (FIBA) - Centro De Investigaciones Biológicas,Vieytes 3103,,7600,223,474857,info@fiba.org.ar; fibamdq@infovia.com.ar,http://www.fiba.org.ar/biblioteca.htm,,-38.0176360,-57.5688030,Localización precisa,RECIARIA,Privado,Fundacion,,CAICYT,Ciencia y Tecnología,2019
06357110,06,06357,,Bibliotecas Especializadas,,Buenos Aires,General Pueyrredon,Mar del Plata,"Biblioteca - Hospital Interzonal General De Agudos ""Oscar Alende""",Juan B. Justo Y 164,,7600,223,4770262,biblioteca@clinicapueyrredon.com,,,-38.0392100,-57.5445390,Localización precisa,RECIARIA,Público,Hospital,"Hospital Interzonal General De Agudos ""Oscar Alende""",BIBLIOMED,Medicina,2019
06357110,06,06357,,Bibliotecas Especializadas,,Buenos Aires,General Pueyrredon,Mar del Plata,"Biblioteca - Hospital Itnerzonal Gral. De Agudos ""Dr. Oscar Alende""",Av. Juan B. Justo 6701,5,B7604ABE,223,4720262 int.577,bibliotecahospitalreg@speedy.com.ar,,,-37.9956490,-57.6020180,Localización precisa,RECIARIA,Público,Hospital,"Hospital Itnerzonal Gral. De Agudos ""Dr. Oscar Alende""",RENICS,Medicina,2019
06357110,06,06357,,Bibliotecas Especializadas,,Buenos Aires,General Pueyrredon,Mar del Plata,Biblioteca - INTI Mar Del Plata,Marcelo T. de Alvear 1168,,7600,223,4802801,mdq@inti.gob.ar,http://www.inti.gov.ar/mardelplata,,-38.0396400,-57.5637420,Localización precisa,RECIARIA,Público,Gubernamental,INTI Mar Del Plata,ASFIS-REDIPES,Ciencias Acuáticas y Pesqueras,2019
06357110,06,06357,,Bibliotecas Especializadas,,Buenos Aires,General Pueyrredon,Mar del Plata,"Biblioteca ""Juan Bautista Alberdi"". Colegio De Abogados De Mar Del Plata",Almte. Brown 1958,,B7600FZ,223,4958569,biblioteca@camdp.org.ar / analia006@hotmail.com,http://www.camdp.org.ar/camdp3/index.php/biblioteca-sp-1273572233,,-38.0075750,-57.5444380,Localización precisa,RECIARIA,Privado,Asociación,,BibliotecasJuriRed,Derecho y Ciencias Jurídicas,2019
06357110,06,06357,,Bibliotecas Especializadas,,Buenos Aires,General Pueyrredon,Mar del Plata,Biblioteca Alberto Vilanova,Neuquen 2235,,B7600AVM,223,4740110 int.34,bibliopsicdx@speedy.com.ar,http://www.psicologosdistritox.org.ar/biblioteca.htm,,-37.9931180,-57.5716660,Localización precisa,RECIARIA,Privado,Asociación,Colegio De Psicólogos De La Pcia. De Buenos Aires,RENICS,Medicina,2019
06357110,06,06357,,Bibliotecas Especializadas,,Buenos Aires,General Pueyrredon,Mar del Plata,Biblioteca Central,Funes 3350,,B7602AYL,223,4759405,bibcen@mdp.edu.ar,http://biblio1.mdp.edu.ar,,-38.0055680,-57.5716240,Localización precisa,RECIARIA,Público,Universidad,Universidad Nacional De Mar Del Plata,VITRUVIO,"Arquitectura, Artes, Diseño y Urbanismo",2019
06357110,06,06357,,Bibliotecas Especializadas,,Buenos Aires,General Pueyrredon,Mar del Plata,Biblioteca Central Unmdp,Funes 3350,,7600,223,4752333,bibcen@mdp.edu.ar,http://biblio1.mdp.edu.ar/,,-38.0055680,-57.5716240,Localización precisa,RECIARIA,Público,Universidad,Universidad Nacional De Mar Del Plata,BIBLIOFAUN,"Arquitectura, Artes, Diseño y Urbanismo",2019
06357110,06,06357,,Bibliotecas Especializadas,,Buenos Aires,General Pueyrredon,Mar del Plata,Biblioteca Central. Universidad Nacional De Mar Del Plata,Dean Funes 3350,,B7602AYL,223,4752333,bibcen@mdp.edu.ar / bibliote@mdp.edu.ar,http://biblio1.mdp.edu.ar/index.php?inicio,,-38.0058125,-57.5715684,Localización precisa,RECIARIA,Público,Universidad,,BibliotecasJuriRed / SIU / UNIRED / CAICYT,Derecho y Ciencias Jurídicas / Multidiciplinaria / Ciencias Sociales / Ciencia y Tecnología,2019
06357110,06,06357,,Bibliotecas Especializadas,,Buenos Aires,General Pueyrredon,Mar del Plata,Biblioteca Centralfaud-Mdp,Funes 3350,,7600,223,4752626 int.209,bibcen@mdp.edu.ar,http://biblio1.mdp.edu.ar/,,-38.0053709,-57.5709000,Localización precisa,RECIARIA,Público,Universidad,Facultad De Arquitectura Urbanismo Y DiseñO. Universidad Nacional De Mar Del Plata.,BIBLIOFAUN,"Arquitectura, Artes, Diseño y Urbanismo",2019
06357110,06,06357,,Bibliotecas Especializadas,,Buenos Aires,General Pueyrredon,Mar del Plata,Biblioteca de la Universidad FASTA,Gascón 3145,,B7600FNK,223,4990410,biblioteca@ufasta.edu.ar; ariel_barrios@ufasta.edu.ar,www.ufasta.edu.ar/biblioteca,,-38.0054770,-57.5426110,Localización precisa,RECIARIA,Privado,Universidad,Universidad Fasta,AMICUS / BUCOC,Bibliotecología y Ciencias de la Información / Multidisciplinaria,2019
06357110,06,06357,,Bibliotecas Especializadas,,Buenos Aires,General Pueyrredon,Mar del Plata,Biblioteca Del INTEMA,Av. Juan B. Justo 4302,,B7608FDQ,223,4816600,ralbino@fi.mdp.edu.ar,http://www.intema.gob.ar/es/biblioteca.html,,-38.0115630,-57.5809190,Localización precisa,RECIARIA,Público,Universidad,,CAICYT,Ciencia y Tecnología,2019
06357110,06,06357,,Bibliotecas Especializadas,,Buenos Aires,General Pueyrredon,Mar del Plata,Biblioteca Departamental. Suprema Corte De Justicia. Departamento Judicial De Mar Del Plata,Almirante Brown 2046,P.B.,7600,223,4956666 int.208,bibliotecaémp@jusbuenosaires.gov.ar / mandrade@jusbuenosaires.gov.ar,http://www.scba.gov.ar/biblioteca/BiblioDirecciones.asp,,-38.0071299,-57.5453327,Localización precisa,RECIARIA,Público,Justicia,,BibliotecasJuriRed,Derecho y Ciencias Jurídicas,2019
06357110,06,06357,,Bibliotecas Especializadas,,Buenos Aires,General Pueyrredon,Mar del Plata,Biblioteca Depositaria de las Naciones Unidas y Hábitat. Municipalidad de General Pueyrredón,Olavarría 2508,,7600,223,4515795,bib.nacionesunidas@mardelplata.gov.ar / gperez@mdp.edu.ar,https://www.facebook.com/biblioteca.onumdp,,-38.0121030,-57.5400750,Localización precisa,RECIARIA,Público,Justicia,,BibliotecasJuriRed,Derecho y Ciencias Jurídicas,2019
06357110,06,06357,,Bibliotecas Especializadas,,Buenos Aires,General Pueyrredon,Mar del Plata,Biblioteca Dr. Mario H. Zerbini,Ituzaingó 3520,,7600,223,4731506,info@ine.gov.ar,http://www.ine.gov.ar/biblioteca.htm,,-37.9858130,-57.5491360,Localización precisa,RECIARIA,Público,Institución,"Instituto Nacional De Epidemiologia ""Dr. Juan H. Jara""",RENICS,Medicina,2019
06357110,06,06357,,Bibliotecas Especializadas,,Buenos Aires,General Pueyrredon,Mar del Plata,Biblioteca Dr. Ramón Enrique Varela,25 de Mayo 3558,,7600,223,4994000 int.368,docencia@clinica25demayomdp.com,www.clinica25demayomdp.com,,-37.9929200,-57.5552370,Localización precisa,RECIARIA,Privado,Hospital,Clínica 25 de Mayo,BIBLIOMED,Medicina,2019
06357110,06,06357,,Bibliotecas Especializadas,,Buenos Aires,General Pueyrredon,Mar del Plata,Biblioteca Hugo Wast. Facultad De Ciencias Jurídicas Y Sociales. Universidad Fasta,Gascón 3145,,7600,223,4990410,biblioteca@ufasta.edu.ar,http://www.ufasta.edu.ar/biblioteca/,,-38.0031314,-57.5575759,Localización precisa,RECIARIA,Privado,Universidad,,BibliotecasJuriRed,Derecho y Ciencias Jurídicas,2019
06357110,06,06357,,Bibliotecas Especializadas,,Buenos Aires,General Pueyrredon,Mar del Plata,Biblioteca Pereyra Iraola,Funes 3350,4,7600,223,4752626,faudipi@mdp.edu.ar. docfaud@gmail.com,http://www2.mdp.edu.ar/arquitectura/bibliotecas/iraola.htm,,-38.0053709,-57.5709000,Localización precisa,RECIARIA,Público,Gubernamental,Facultad De Arquitectura Urbanismo Y DiseñO. Universidad Nacional De Mar Del Plata.,BIBLIOFAUN,"Arquitectura, Artes, Diseño y Urbanismo",2019
06357110,06,06357,,Bibliotecas Especializadas,,Buenos Aires,General Pueyrredon,Mar del Plata,Biblioteca Ramón Enrique Varela,25 de Mayo 3542/58,6,B7600GWV,223,4994000 INT. 368,docencia@clinica25demayomdp.com,www.clinica25demayomdp.com,,-37.9929780,-57.5551240,Localización precisa,RECIARIA,Privado,Hospital,Clínica 25 de Mayo,RENICS,Medicina,2019
06357110,06,06357,,Bibliotecas Especializadas,,Buenos Aires,General Pueyrredon,Mar del Plata,Biblioteca y Hemeroteca Regional INTEMA,Solis 7575,,B7608FLD,223,4816600 Int. 324,biliotecaintema@fi.mdp.edu.ar,http://www.intema.gob.ar/,,-38.0127160,-57.5813950,Localización precisa,RECIARIA,Privado,Institución,,CAICYT,Ciencia y Tecnología,2019
06357110,06,06357,,Bibliotecas Especializadas,,Buenos Aires,General Pueyrredon,Mar del Plata,Biblioteca Y Servicio De Documentación,Paseo Victoria Ocampo Escollera Norte 1,,7600,223,4862586 int.119,biblio@inidep.edu.ar,www.inidep.edu.ar/home.htm,,-38.0257950,-57.5307520,Localización precisa,RECIARIA,Público,Gubernamental,Instituto Nacional de Investigación y Desarrollo Pesquero (INIDEP),ASFIS-REDIPES,Ciencias Acuáticas y Pesqueras,2019
06357110,06,06357,,Bibliotecas Especializadas,,Buenos Aires,General Pueyrredon,Mar del Plata,Biblioteca Y Servicio De Documentación INIDEP,Paseo Victoria Ocampo Nº1,,7600,223,4861292 Int. 119,biblio@inidep.edu.ar,http://www.inidep.edu.ar/biblioteca-3/biblioteca/,,-38.0257950,-57.5307520,Localización precisa,RECIARIA,Público,Gubernamental,,CAICYT / SIDALC,Ciencia y Tecnología / Ciencias Agronómicas y Forestales,2019
06357110,06,06357,,Bibliotecas Especializadas,,Buenos Aires,General Pueyrredon,Mar del Plata,Biblioteca. Cámara Federal de Apelaciones de Mar del Plata,Diagonal Pueyrredón 3138,,7600,223,4913738,cfmardelplata@pjn.gov.ar,http://www.csjn.gov.ar/dbei/ii/cf/interior/mardelplata/mardelplataécamara.html,,-37.9986907,-57.5515762,Localización precisa,RECIARIA,Público,Justicia,,BibliotecasJuriRed,Derecho y Ciencias Jurídicas,2019
06357110,06,06357,,Bibliotecas Especializadas,,Buenos Aires,General Pueyrredon,Mar del Plata,Biblioteca. Facultad De Derecho. Universidad Nacional De Mar Del Plata,25 de Mayo 2855/65,3,7600,223,4940607,gppeccia@mdp.edu.ar / bibédcho@mdp.edu.aré,http://www.mdp.edu.ar/derecho/biblioteca/,,-37.9596754,-57.6207303,Localización precisa,RECIARIA,Público,Universidad,,BibliotecasJuriRed,Derecho y Ciencias Jurídicas,2019
06357110,06,06357,,Bibliotecas Especializadas,,Buenos Aires,General Pueyrredon,Mar del Plata,Centro de Documentación,Dean Funes 3250,,7600,223,4749696 int. 334,cendocu@mdp.edu.ar; emduran@mdp.edu.ar; emduran@uni-mdp,http://eco.mdp.edu.ar/cendocu/,,-38.0047740,-57.5709780,Localización precisa,RECIARIA,Público,Universidad,Facultad De Ciencias Economicas Y Sociales - Universidad Nacional De Mar Del Plata,RENDIAP / SIDALC,Administración Pública / Ciencias Agronómicas y Forestales / Ciencias Sociales,2019
06357110,06,06357,,Bibliotecas Especializadas,,Buenos Aires,General Pueyrredon,Mar del Plata,Centro De Documentación De La Facultad De Psicología Y De La Biblioteca Del CEPS,Funes 3280,,7600,223,4752266 int. 103,psicedoc@mdp.edu.ar,http://www.mdp.edu.ar/psicologia/cendoc/,,-38.0049420,-57.5711160,Localización precisa,RECIARIA,Público,Universidad,,CAICYT,Ciencia y Tecnología,2019
06357110,06,06357,,Bibliotecas Especializadas,,Buenos Aires,General Pueyrredon,Mar del Plata,División Referencia Legislativa,Hipólito Yrigoyen 1627,2,7600,223,4996331,biblioteca@concejomdp.gov.ar,www.concejo.mdp.gob.ar/biblioteca,,-37.9973430,-57.5494670,Localización precisa,RECIARIA,Público,Gubernamental,Honorable Concejo Deliberante De La Municipalidad De Gral. Pueyrredón,RENDIAP,Administración Pública,2019
06357110,06,06357,,Bibliotecas Especializadas,,Buenos Aires,General Pueyrredon,Mar del Plata,Dr. Cosme Monteleone,Corrientes 2951,,B7602CGC,223,4958998,info@kinesiologosd9.org.ar,www.kinesio_distrito9.com.ar,,-38.0109570,-57.5520110,Localización precisa,RECIARIA,Privado,Asociación,Circulo De Kinesiologos Ix Distrito,RENICS,Medicina,2019
06357110,06,06357,,Bibliotecas Especializadas,,Buenos Aires,General Pueyrredon,Mar del Plata,Dr. Enrique De Gandía,Arenales 2740,,B7600EGN,223,4915400,uaabibliotecamdp@hotmail.com,http://www.atlantida.edu.ar/uaa2010/main.html,,-38.0114330,-57.5464880,Localización precisa,RECIARIA,Privado,Universidad,Universidad Atlántida Argentina,RENICS,Medicina,2019
06357110,06,06357,,Bibliotecas Especializadas,,Buenos Aires,General Pueyrredon,Mar del Plata,Ing. José María Virgili,Buque Pesquero Dorrego 281,,7600,,,biblioteca@mdp.utn.edu.ar,http://www.mdp.utn.edu.ar/biblioteca.php,,-38.0502130,-57.5442157,Localización precisa,RECIARIA,Público,Universidad,,Red UTN,Educación,2019
06357110,06,06357,,Bibliotecas Especializadas,,Buenos Aires,General Pueyrredon,Mar del Plata,Mediateca-Biblioteca,Av. Martínez de Hoz E Irala S/N. Puerto,,7600,223,4890617,mediateca@escueladepesca.edu.ar,http://www.escueladepesca.edu.ar,,-38.0482610,-57.5448950,Localización precisa,RECIARIA,Público,Fuerzas Armadas,Escuela Nacional De Pesca,ASFIS-REDIPES,Ciencias Acuáticas y Pesqueras,2019
06357110,06,06357,,Bibliotecas Especializadas,,Buenos Aires,General Pueyrredon,Mar del Plata,Psicocedoc - Centro De Documentación De La Facultad De Psicología,Funes 3280,,B7602AYZ,223,4752266,psicedoc@mdp.edu.ar,www.mdp.edu.ar/psicologia/cendoc/index.htm,,-38.0049420,-57.5711160,Localización precisa,RECIARIA,Público,Universidad,Facultad De Psicología. Secretaría De Investigación Y Desarrollo - Universidad Nacional De Mar Del Plata.,RENICS,Medicina,2019
06357110,06,06357,,Bibliotecas Especializadas,,Buenos Aires,General Pueyrredon,Mar del Plata,"Referencia Legislativa, Digesto Y Biblioteca. Consejo Deliberante Partido General Pueyrredón",Hipólito Yrigoyen 1627,2,7600,223,4996331,biblioteca@concejomdp.gov.ar,http://www.concejomdp.gov.ar/biblioteca/,,-37.9972750,-57.5497280,Localización precisa,RECIARIA,Público,Gubernamental,,BibliotecasJuriRed,Derecho y Ciencias Jurídicas,2019
06357110,06,06357,,Bibliotecas Especializadas,,Buenos Aires,General Pueyrredon,Mar del Plata,"Servicio De Información Documental ""Liliana Befumo De Boschi"".Facultad De Humanidades. Universidad Nacional De Mar Del Plata",Funes 3350,,7600,223,4752288,sidhuma@mdp.edu.ar,http://www.mdp.edu.ar/humanidades/coordinacion/sid/index.htm,,-38.0053709,-57.5709000,Localización precisa,RECIARIA,Público,Universidad,,BibliotecasJuriRed,Derecho y Ciencias Jurídicas,2019
06357110,06,06357,,Bibliotecas Especializadas,,Buenos Aires,General Pueyrredon,Mar del Plata,Servicio De Información Documental UNMDP,Funes 3350,8,B7600AYL,223,4752288 Int. 422,sidhuma@mdp.edu.ar,http://www.mdp.edu.ar/humanidades/documentacion/index.htm,,-38.0055680,-57.5716240,Localización precisa,RECIARIA,Público,Universidad,,CAICYT,Ciencia y Tecnología,2019
06371010,06,06371,,Bibliotecas Especializadas,,Buenos Aires,General San Martin,General San Martín,Biblioteca Central,Campus Miguelete UNSAM. 25 de Mayo y Francia,,1650,11,40061500 int.1387,bc.unsam@gmail.com,http://www.unsam.edu.ar/biblioteca_central/,,-34.5798390,-58.5266950,Localización precisa,RECIARIA,Público,Universidad,,CLACSO,Ciencias Sociales,2019
06371010,06,06371,,Bibliotecas Especializadas,,Buenos Aires,General San Martin,San Martín,Biblioteca,Irigoyen 1650,,1650CPZ ,,,biblioteca@mdp.utn.edu.ar,,,-34.6196464,-58.5278245,Localización precisa,RECIARIA,Público,Universidad,Universidad Nacional de San Martín,REDIAB,Bibliotecas de universidadespúblicas,2019
06371010,06,06371,,Bibliotecas Especializadas,,Buenos Aires,General San Martin,San Martín,"Biblioteca ""Dr. Enrique V. Galli"". Colegio De Abogados De San Martín",Av. Ricardo Balbín 1750/52,Subsuelo,1650,11,47542139,biblioteca@casm.org.ar,http://www.casm.org.ar/web/notiver.asp?68,,-34.5833646,-58.5388483,Localización precisa,RECIARIA,Privado,Asociación,,BibliotecasJuriRed,Derecho y Ciencias Jurídicas,2019
06371010,06,06371,,Bibliotecas Especializadas,,Buenos Aires,General San Martin,San Martín,Biblioteca Central UNSAM - Centro de Documentación e Información,25 de Mayo y Francia,,1650,11,4006 1500 int.1387,bc.unsam@gmail.com,http://www.unsam.edu.ar/biblioteca_central/,,-34.5785080,-58.5272390,Localización precisa,RECIARIA,Público,Universidad,Universidad Nacional de San Martín,CAICYT / VITRUVIO / RUNCOB,"Arquitectura, Artes, Diseño y Urbanismo / Ciencias Sociales y Humanidades / Ciencias de la Salud / Ciencia y Tecnología / Arte e Historia",2019
06371010,06,06371,,Bibliotecas Especializadas,,Buenos Aires,General San Martin,San Martín,Biblioteca De Ciencia Y Tecnología - Cyt,Martín de Irigoyen 3100,P.B.,1650,11,45807308,elizabeth.kunschek@unsam.edu.ar,http://www.unsam.edu.ar/bibcentral/presentacion.asp?m=6&s=21&s1=82,,-34.5780100,-58.5273180,Localización precisa,RECIARIA,Público,Universidad,Secretaría General Académica - Campus Miguelete - Unsam,UNID,Multidiciplinaria,2019
06371010,06,06371,,Bibliotecas Especializadas,,Buenos Aires,General San Martin,San Martín,Biblioteca De Economía Y Negocios - Eyn,Caseros 2241,P.B.,1650,11,45807250 int.117,biblioteca.eeyn@unsam.edu.ar,http://www.unsam.edu.ar/bibcentral/presentacion.asp?m=6&s=21,,-34.6050400,-58.5674510,Localización precisa,RECIARIA,Público,Universidad,Escuela De Economía Y Negocios - Sede Caseros - Unsam -,UNID,Multidiciplinaria,2019
06371010,06,06371,,Bibliotecas Especializadas,,Buenos Aires,General San Martin,San Martín,Biblioteca De Humanidades - Hum,Martín de Irigoyen 3100,P.B.,1650,11,40061500 int.1259,biblioteca.humanidades@unsam.edu.ar,http://www.unsam.edu.ar/bibcentral/presentacion.asp?m=6&s=21,,-34.5780100,-58.5273180,Localización precisa,RECIARIA,Público,Universidad,Escuela De Humanidades - Campus Miguelete - Unsam,UNID,Multidiciplinaria,2019
06371010,06,06371,,Bibliotecas Especializadas,,Buenos Aires,General San Martin,San Martín,Biblioteca Del Instituto De Tecnología Minera,Parque Tecnológico Miguelete. Edificio 14,,1650,11,47544070 int.154,maria.hepburn@segemar.gov.ar,http://www.segemar.gov.ar/,,-34.5708840,-58.5097010,Localización precisa,RECIARIA,Público,Gubernamental,,CAICYT,Ciencia y Tecnología,2019
06371010,06,06371,,Bibliotecas Especializadas,,Buenos Aires,General San Martin,San Martín,Biblioteca Departamental San Martín,Av. Ricardo Balbín 1753,Subsuelo,,11,47245713,biblioteca-sm@jusbuenosaires.gov.ar,,,-34.5833092,-58.5388890,Localización precisa,RECIARIA,Público,Justicia,,CAICYT,Ciencia y Tecnología,2019
06371010,06,06371,,Bibliotecas Especializadas,,Buenos Aires,General San Martin,San Martín,Biblioteca Departamental. Cámara Departamento Judicial De San Martín,Av. Ricardo Balbín 1753,Subsuelo,1650,11,47245700 int.5714,biblioteca-sm@jusbuenosaires.gov.ar / bkrieger@jusbuenosaires.gov.ar,http://www.scba.gov.ar/biblioteca/BiblioDirecciones.asp,,-34.5832879,-58.5389425,Localización precisa,RECIARIA,Público,Justicia,,BibliotecasJuriRed,Derecho y Ciencias Jurídicas,2019
06371010,06,06371,,Bibliotecas Especializadas,,Buenos Aires,General San Martin,San Martín,Biblioteca. Cámara Federal De Apelaciones De San Martín (Pjn),Guemes 3053,2,1651,,47538569,mlaura.gilio@pjn.gov.ar / cfsanmartin@pjn.gov.ar,http://www.scba.gov.ar/biblioteca/BiblioDirecciones.asp,,-34.5713812,-58.5516393,Localización precisa,RECIARIA,Público,Justicia,,BibliotecasJuriRed,Derecho y Ciencias Jurídicas,2019
06371010,06,06371,,Bibliotecas Especializadas,,Buenos Aires,General San Martin,San Martín,Biblioteca. Cámara Federal. Juzgado Federal En Lo Civil Y Comercial Contencioso Administrativo De San Martín Nº 2,Calle 85 1770,P.B.,1650,,47555974,jfcsanmartin2@pjn.gov.ar,http://www.scba.gov.ar/biblioteca/BiblioDirecciones.asp,,-34.5785525,-58.5335944,Localización precisa,RECIARIA,Público,Justicia,,BibliotecasJuriRed,Derecho y Ciencias Jurídicas,2019
06371010,06,06371,,Bibliotecas Especializadas,,Buenos Aires,General San Martin,San Martín,Centro De Información Centro Atómico Constituyentes [Cicac] - Biblioteca Eduardo J. Savino,Av. General Paz 1499,,,,6772 7163,chavez@cnea.gov.ar; referencia@cnea.gov.ar,www.cnea.gov.ar/cac/ci,,-34.5822720,-58.5158620,Localización precisa,RECIARIA,Público,Gubernamental,Comisión Nacional de Energía Atómica (CNEA),UNIRED,Ciencias Sociales,2019
06371010,06,06371,,Bibliotecas Especializadas,,Buenos Aires,General San Martin,San Martín,Centro de Información Eduardo Savino [CIES],Av. Gral. Paz 1499,,B1650KNA,11,67727157,foz@cnea.gov.ar; referencia@cnea.gov.ar,http://www2.cnea.gov.ar/cac/ci,,-34.5822780,-58.5158620,Localización precisa,RECIARIA,Público,Gubernamental,,INIS-RRIAN,Energía Nuclear,2019
06371010,06,06371,,Bibliotecas Especializadas,,Buenos Aires,General San Martin,San Martín,Servicio de Documentación e Información Legal,Av. Del Libertador 8250,2,,11,47041039,alcon@cnea.gov.ar,http://www2.cnea.gov.ar/biblio/SDeIL/default.asp,,-34.5278840,-58.5851080,Localización precisa,RECIARIA,Público,Gubernamental,,CAICYT,Ciencia y Tecnología,2019
06371010,06,06371,,Bibliotecas Especializadas,,Buenos Aires,General San Martin,Villa Chacabuco,Biblioteca - Universidad Nacional De General San Martín (UNSAM),M. de Irigoyen 3100,,1846,11,40061500 int.1259,biblioteca.central@unsam.edu.ar; biblio@unsam.edu.ar,http://www.unsam.edu.ar/bibcentral/presentacion.asp?m=6&s=21,,-34.5779390,-58.5269920,Localización precisa,RECIARIA,Público,Universidad,Universidad Nacional De General San Martín (UNSAM),SIU,Multidiciplinaria,2019
06371010,06,06371,,Bibliotecas Especializadas,,Buenos Aires,General San Martin,Villa Maipú,Centro Atómico Constituyentes,Av. Gral. Paz 1499 (colectora del lado de provincia),,,11,67727163,pedidos@cnea.gov.ar,http://www.cnea.gov.ar,,-34.5728400,-58.5119000,Localización precisa,RECIARIA,Público,Gubernamental,,CAICYT,Ciencia y Tecnología,2019
06392050,06,06392,,Bibliotecas Especializadas,,Buenos Aires,General Villegas,General Villegas,Biblioteca - INTA. Estación Experimental Agropecuaria General Villegas,C.C. 153,,B6230WAB,,,bibgral@correo.inta.gov.ar,http://inta.gob.ar/unidades/713000/biblioteca-general-villegas,,-35.0353560,-63.0164050,Localización precisa,RECIARIA,Público,Gubernamental,,CAICYT,Ciencia y Tecnología,2019
06392050,06,06392,,Bibliotecas Especializadas,,Buenos Aires,General Villegas,General Villegas,Centro Documental - EEA General Villegas,Ruta 188 Km 339.5,,6230,3388,421980,eeadelta.cd@inta.gob.ar,http://inta.gob.ar/unidades/713000/biblioteca-general-villegas,,-35.0439026,-62.9975700,Localización precisa,RECIARIA,Público,Gubernamental,,CDINTA,"Ciencias Agronómicas, Agropercuarias y Veterinaria",2019
06408010,06,06408,,Bibliotecas Especializadas,,Buenos Aires,Hurlingham,Hurlingham,Biblioteca Del Centro De Investigación De Recursos Naturales (Cirn),De los Reseros y Nicolás Repetto (ex Las Cabañas) s/n,,1686,11,46211448 int.118,ruguet@cnia.inta.gov.ar,http://inta.gob.ar/unidades/210000/biblioteca-del-cirn/view,,-34.6132300,-58.6745611,Localización precisa,RECIARIA,Público,Gubernamental,,CAICYT,Ciencia y Tecnología,2019
06408010,06,06408,,Bibliotecas Especializadas,,Buenos Aires,Hurlingham,Hurlingham,Centro Documental Instituto De Microbiología Y Zoología Agrícola (Imyza),Nicolas Repetto y de los Reseros s/n,,1686,11,44814320 INT.108,lafuente.lorena@inta.gob.ar,http://inta.gob.ar/unidades/232000/biblioteca-imyza,,-34.6132347,-58.6745611,Localización precisa,RECIARIA,Público,Gubernamental,,CDINTA,"Ciencias Agronómicas, Agropercuarias y Veterinaria",2019
06408010,06,06408,,Bibliotecas Especializadas,,Buenos Aires,Hurlingham,Hurlingham,CIA - Ingeniería Rural,Nicolas Repetto y de los Reseros s/n,,1686,,46216903,iir.cd@inta.gob.ar,http://inta.gob.ar/unidades/222000/biblioteca-ingenieria-rural,,-34.6132347,-58.6745611,Localización precisa,RECIARIA,Público,Gubernamental,,CDINTA,"Ciencias Agronómicas, Agropercuarias y Veterinaria",2019
06408010,06,06408,,Bibliotecas Especializadas,,Buenos Aires,Hurlingham,Hurlingham,CIA - Tecnología de Alimentos,Nicolas Repetto y de los Reseros s/n,,1686,11,46211390,ita.cd@inta.gob.ar,http://inta.gob.ar/unidades/221000/biblioteca-tecnologia-alimentos,,-34.6132347,-58.6745611,Localización precisa,RECIARIA,Público,Gubernamental,,CDINTA,"Ciencias Agronómicas, Agropercuarias y Veterinaria",2019
06408010,06,06408,,Bibliotecas Especializadas,,Buenos Aires,Hurlingham,Hurlingham,CICVyA,Nicolas Repetto y de los Reseros s/n,,1686,11,44501876,barchetta.liliana@inta.gob.ar,http://inta.gob.ar/unidades/231000/biblioteca-genetica,,-34.6132347,-58.6745611,Localización precisa,RECIARIA,Público,Gubernamental,,CDINTA,"Ciencias Agronómicas, Agropercuarias y Veterinaria",2019
06408010,06,06408,,Bibliotecas Especializadas,,Buenos Aires,Hurlingham,Hurlingham,CIRN,Nicolas Repetto y de los Reseros s/n,,1686,11,46216569,uguet.roberto@inta.gob.ar,http://inta.gob.ar/unidades/210000/biblioteca-del-cirn,,-34.6126420,-58.6745010,Localización precisa,RECIARIA,Público,Gubernamental,,CDINTA,"Ciencias Agronómicas, Agropercuarias y Veterinaria",2019
06412010,06,06412,,Bibliotecas Especializadas,,Buenos Aires,Jose C. Paz,José C. Paz,Biblioteca - Unpaz,Leandro N. Alem 4731,,1665,2320,695130,bibliotecaunpaz@gmail.com,http://www.unpaz.edu.ar/,,-34.5206940,-58.7453440,Localización precisa,RECIARIA,Público,Universidad,Unpaz,RUNCOB,Ciencias Sociales y Humanidades / Ciencias de la Salud / Ciencia y Tecnología / Arte e Historia,2019
06413050,06,06413,,Bibliotecas Especializadas,,Buenos Aires,Junin,Junín,Biblioteca,Domingo Faustino Sarmiento 1201,,,,,biblioteca@mdp.utn.edu.ar,,,-34.5740401,-60.9527631,Localización precisa,RECIARIA,Público,Universidad,Universidad Nacional del Noroeste de la Provincia de Buenos Aires,REDIAB,Bibliotecas de universidadespúblicas,2019
06413050,06,06413,,Bibliotecas Especializadas,,Buenos Aires,Junin,Junín,Biblioteca Departamental De Junín. Suprema Corte De Justicia. Departamento Judicial De Junín,Mayor López 22,,6000,2362,435970 int.1151,biblioteca-ju@jusbuenosaires.gov.ar / mtzabala@jusbuenosaires.gov.ar,http://www.scba.gov.ar/biblioteca/BiblioDirecciones.asp,,-34.5941431,-60.9456768,Localización precisa,RECIARIA,Público,Justicia,,BibliotecasJuriRed,Derecho y Ciencias Jurídicas,2019
06413050,06,06413,,Bibliotecas Especializadas,,Buenos Aires,Junin,Junín,Biblioteca. Colegio De Abogados De Junín,Bartolomé Mitre 83,,6000,,,biblioteca@cadjj.org.ar,http://cadjj.org.ar/bibliotecaéservicios,,-34.6085479,-58.4005553,Localización precisa,RECIARIA,Privado,Asociación,,BibliotecasJuriRed,Derecho y Ciencias Jurídicas,2019
06420020,06,06420,,Bibliotecas Especializadas,,Buenos Aires,La Costa,Mar de Ajó,Biblioteca Dr. Enrique De Gandía - Universidad Atlántida Argentina (Sede Central Mar de Ajó),Diagonal Rivadavia Nº 515,,B7109FDF,2257,420338,Mar del Plata: biblioteca@mdp.atlantida.edu.ar - Dolores:biblioteca@dol.atlantida.edu.ar; biblioteca@atlantida.edu.ar,www.atlantida.edu.ar,,-36.7269220,-56.6797920,Localización precisa,RECIARIA,Privado,Universidad,Universidad Atlántida Argentina,AMICUS,Bibliotecología y Ciencias de la Información,2019
06427010,06,06427,,Bibliotecas Especializadas,,Buenos Aires,La Matanza,Ciudad Evita,Biblioteca Cte D Rubén Raúl Aguirre,El quebracho S/N,,1778,11,44871157,biblioteca.escugen@gmail.com,,,-34.7352240,-58.5341540,Localización precisa,RECIARIA,Público,Gubernamental,,REBIFA,Fuerzas Armadas,2019
06427010,06,06427,,Bibliotecas Especializadas,,Buenos Aires,La Matanza,Gregorio de Laferrere,"Escuela de Educación Secundaria N°28 ""Profesor Juan Carlos Bruera""",Juan Cruz Varela 4658,,1757,,,media069028@yahoo.com.ar,,,-34.7649846,-58.5911944,Localización precisa,RECIARIA,Público,Escuela,,REDFEDBNM-MEDAR/AM,Educación,2019
06427010,06,06427,,Bibliotecas Especializadas,,Buenos Aires,La Matanza,La Matanza,Biblioteca Departamental. Suprema Corte De Justicia. Departamento Judicial De La Matanza,Pte. Perón 2850,,1754,11,44842728,biblioteca-lm@jusbuenosaires.gov.ar / izarcelaya@gmail.com / aberzoni@jusbuenosaires.gov.ar,http://www.scba.gov.ar/biblioteca/BiblioDirecciones.asp,,-34.6735420,-58.5605124,Localización precisa,RECIARIA,Público,Justicia,,BibliotecasJuriRed,Derecho y Ciencias Jurídicas,2019
06427010,06,06427,,Bibliotecas Especializadas,,Buenos Aires,La Matanza,La Matanza,Biblioteca Leopoldo Marechal,Florencio Varela 1903,P.B.,1754,11,44808900,biblioteca@unlam.edu.ar; ahuivan@unlam.edu.ar,http://biblioteca.unlam.edu.ar/,,-34.6700510,-58.5620240,Localización precisa,RECIARIA,Público,Universidad,UNLaM,BIBLIOFAUN / RUNCOB,"Arquitectura, Artes, Diseño y Urbanismo /Ciencias Sociales y Humanidades / Ciencias de la Salud / Ciencia y Tecnología / Arte e Historia",2019
06427010,06,06427,,Bibliotecas Especializadas,,Buenos Aires,La Matanza,San Justo,"Biblioteca Central ""Leopoldo Marechal"". Universidad Nacional De La Matanza. UNLM",Florencio Varela 1903,,1754,11,44808900 int.8802,biblioteca@unlam.edu.ar,http://biblioteca.unlam.edu.ar/,,-34.6698856,-58.5626053,Localización precisa,RECIARIA,Público,Universidad,Universidad Nacional De La Matanza,BibliotecasJuriRed / UNIRED / VITRUVIO,"Derecho y Ciencias Jurídicas / Ciencias Sociales / Arquitectura, Artes, Diseño y Urbanismo",2019
06427010,06,06427,,Bibliotecas Especializadas,,Buenos Aires,La Matanza,San Justo,Biblioteca. Colegio De Abogados De La Matanza,Entre Ríos 2942,P.B.,1754,,44410196,biblioteca@calm.org.ar,http://www.calm.org.ar/Biblioteca,,-34.6755064,-58.5608953,Localización precisa,RECIARIA,Privado,Asociación,,BibliotecasJuriRed,Derecho y Ciencias Jurídicas,2019
06441030,06,06441,,Bibliotecas Especializadas,,Buenos Aires,La Plata,Gonnet,Biblioteca - Fundación - Instituto De Humanidades Medicas,Calle 508 E/16 Y 18 C.C. 91,,B1897WAB,221,4711160,postmaster@funmai.org.ar,,,-34.8906170,-58.0073190,Localización precisa,RECIARIA,Privado,Fundacion,,CAICYT,Ciencia y Tecnología,2019
06441030,06,06441,,Bibliotecas Especializadas,,Buenos Aires,La Plata,Gonnet,Biblioteca de la Universidad Pedagógica,Camino Centenario 2565,,B1897AVA,221,4842697,unipe.laplata@unipe.edu.ar,http://unipe.edu.ar/biblioteca/,,-34.8844680,-58.0041050,Localización precisa,RECIARIA,Público,Universidad,,CLACSO,Ciencias Sociales,2019
06441030,06,06441,,Bibliotecas Especializadas,,Buenos Aires,La Plata,Gonnet,Biblioteca Del Centro De Investigaciones Ópticas,Camino Parque Centenario E/ 505 Y 508,,B1902WAB,221,4842957,biblioteca@ciop.unlp.edu.ar; claudiag@ciop.unlp.edu.ar,http://www.ciop-cic-conicet.gob.ar/,,-34.8848170,-58.0043860,Localización precisa,RECIARIA,Público,Gubernamental,,CAICYT,Ciencia y Tecnología,2019
06441030,06,06441,,Bibliotecas Especializadas,,Buenos Aires,La Plata,Gonnet,"Biblioteca Hospital Zonal General De Agudos ""San Roque""",Calle 508 Entre 18 Y 19,,1897,221,4840290/4 int 185,biblio_san@yahoo.com.ar,,,-34.8906520,-58.0072590,Localización precisa,RECIARIA,Público,Hospital,"Hospital Zonal General De Agudos ""San Roque""",RENICS,Medicina,2019
06441030,06,06441,,Bibliotecas Especializadas,,Buenos Aires,La Plata,La Plata,Biblioteca,Boulevard 120 y 62,,1900,221,4222775,bibliote@ilpla.edu.ar,http://www.ilpla.edu.ar/biblioteca_ilpla.html,,-34.8899000,-57.9546740,Localización precisa,RECIARIA,Público,Institución,,CAICYT,Ciencia y Tecnología,2019
06441030,06,06441,,Bibliotecas Especializadas,,Buenos Aires,La Plata,La Plata,Biblioteca,Diagonal 80 Nº 723,,1900,221,4224636,biblioteca@ude.edu.ar,www.ude.edu.ar,,-34.9074480,-57.9490030,Localización precisa,RECIARIA,Privado,Universidad,UNIVERSIDAD DEL ESTE,AMICUS,Bibliotecología y Ciencias de la Información,2019
06441030,06,06441,,Bibliotecas Especializadas,,Buenos Aires,La Plata,La Plata,Biblioteca - Bolsa De Comercio De La Plata,Calle 48 515,,1900,221,4217202,bclp@netverk.com.ar                      bclp@speedy.com.ar,,,-34.9121110,-57.9496700,Localización precisa,RECIARIA,Privado,Institución,Bolsa De Comercio De La Plata,UNIRED,Ciencias Sociales,2019
06441030,06,06441,,Bibliotecas Especializadas,,Buenos Aires,La Plata,La Plata,Biblioteca - Centro De Endocrinología Experimental Y Aplicada - Conexa - (Unlp-Conicet),Calle 60 Y 120,4,B1904AWZ,221,4236712,cenexa@speedy.com.ar,www.cenexa.org,,-34.9095060,-57.9295830,Localización precisa,RECIARIA,Público,Institución,Centro De Endocrinología Experimental Y Aplicada - Cenexa - (Unlp-Conicet),RENICS,Medicina,2019
06441030,06,06441,,Bibliotecas Especializadas,,Buenos Aires,La Plata,La Plata,Biblioteca - Colegio De Arquitectos De La Provincia De Buenos Aires. Distrito 1. La Plata,Calle 10 689,,B1900TIV,221,4232821,biblioteca@infovia.com.ar biblioteca@capbauno.org.ar,http://demo5.esenciacms.com.ar/servicios/biblioteca,,-34.9150036,-57.9563683,Localización precisa,RECIARIA,Privado,Asociación,Colegio De Arquitectos De La Provincia De Buenos Aires. Distrito 1. La Plata,VITRUVIO,"Arquitectura, Artes, Diseño y Urbanismo",2019
06441030,06,06441,,Bibliotecas Especializadas,,Buenos Aires,La Plata,La Plata,Biblioteca - CONICET - Centro De Endocrinología Experimental Y Aplicada,Calles 60 Y 120 S/N,,1900,221,4236712,direccion@cenexa.org,http://www.cenexa.org/,,-34.9095060,-57.9295830,Localización precisa,RECIARIA,Público,Gubernamental,,CAICYT,Ciencia y Tecnología,2019
06441030,06,06441,,Bibliotecas Especializadas,,Buenos Aires,La Plata,La Plata,Biblioteca - CONICET - Centro De Estudios Parasicológicos Y De Vectores,Calle 2 584,,B1900CHX,221,4233471,postmaster@cepave.edu.ar,www.cepave.edu.ar,,-34.9056570,-57.9506640,Localización precisa,RECIARIA,Público,Gubernamental,,CAICYT,Ciencia y Tecnología,2019
06441030,06,06441,,Bibliotecas Especializadas,,Buenos Aires,La Plata,La Plata,"Biblioteca - CONICET - Centro De Investigación Y Desarrollo En Ciencias Aplicadas ""Dr. Jorge J. Ronco""",Calle 47 257,,B1900AJK,221,4211353,bcindeca@quimica.unlp.edu.ar,http://cindeca.quimica.unlp.edu.ar/biblioteca,,-34.9066330,-57.9452850,Localización precisa,RECIARIA,Público,Gubernamental,,CAICYT,Ciencia y Tecnología,2019
06441030,06,06441,,Bibliotecas Especializadas,,Buenos Aires,La Plata,La Plata,Biblioteca - CONICET - Centro De Investigación Y Desarrollo En Fermentaciones Industriales,Calles 50 Y 115,,B1900AJL,221,4833794,cindefi@biotec.org.ar,http://cindefi.quimica.unlp.edu.ar/?page_id=47&language=es,,-34.9079960,-57.9422680,Localización precisa,RECIARIA,Público,Gubernamental,,CAICYT,Ciencia y Tecnología,2019
06441030,06,06441,,Bibliotecas Especializadas,,Buenos Aires,La Plata,La Plata,Biblioteca - CONICET - Centro De Investigación Y Desarrollo En Tecnología De Pinturas,Calle 52 E/121 Y 122,,B1902WAB,221,4831141,biblioteca@cidepint.gov.ar,http://www.cidepint.gov.ar/,,-34.8465220,-58.0879489,Localización precisa,RECIARIA,Público,Gubernamental,,CAICYT,Ciencia y Tecnología,2019
06441030,06,06441,,Bibliotecas Especializadas,,Buenos Aires,La Plata,La Plata,Biblioteca - CONICET - Centro De Investigaciones Cardiovasculares,Calles 60 Y 120,,1900,221,4894813,cicme@atlas.med.unlp.edu.ar,http://www.ciclaplata.org.ar/,,-34.9095073,-57.9282513,Localización precisa,RECIARIA,Público,Gubernamental,,CAICYT,Ciencia y Tecnología,2019
06441030,06,06441,,Bibliotecas Especializadas,,Buenos Aires,La Plata,La Plata,Biblioteca - CONICET - Centro De Investigaciones Geológicas,Calle 1 644,,B1900CVN,221,4215677,nvaldez@cig.museo.unlp.edu.ar,http://www.cig.museo.unlp.edu.ar/cig/menu1.htm,,-34.8713620,-58.0512560,Localización precisa,RECIARIA,Público,Gubernamental,,CAICYT,Ciencia y Tecnología,2019
06441030,06,06441,,Bibliotecas Especializadas,,Buenos Aires,La Plata,La Plata,Biblioteca - CONICET - Instituto De Astrofísica De La Plata,Observatorio Astronómico Paseo Del Bosque S/N,,1900,221,4236593,sabal@fcaglp.unlp.edu.arialp@fcaglp.unlp.edu.ar,http://ialp.fcaglp.unlp.edu.ar/,,-34.9090270,-57.9353750,Localización precisa,RECIARIA,Público,Gubernamental,,CAICYT,Ciencia y Tecnología,2019
06441030,06,06441,,Bibliotecas Especializadas,,Buenos Aires,La Plata,La Plata,Biblioteca - CONICET - Instituto De Fisiología Vegetal,Diagonal 113 Y Calle 61 495,,B1902WAD,221,4236618,infive@ceres.agro.unlp.edu.ar,http://www.infive.unlp.edu.ar/,,-34.9130060,-57.9307920,Localización precisa,RECIARIA,Público,Gubernamental,,CAICYT,Ciencia y Tecnología,2019
06441030,06,06441,,Bibliotecas Especializadas,,Buenos Aires,La Plata,La Plata,Biblioteca - CONICET - Instituto De Investigaciones Fisicoquímicas Teóricas Y Aplicadas,Diagonal 113 Y 64,,1900,221,4257291,bibliote@inifta.unlp.edu.ardireccion@inifta.unlp.edu.ar,http://www.inifta.unlp.edu.ar/bibliot.htm,,-34.9133840,-57.9252370,Localización precisa,RECIARIA,Público,Gubernamental,,CAICYT,Ciencia y Tecnología,2019
06441030,06,06441,,Bibliotecas Especializadas,,Buenos Aires,La Plata,La Plata,Biblioteca - CONICET - Laboratorio De Entrenamiento Multidisciplinario Para La Investigación Tecnológica - Comisión De Investigaciones Científicas De La Provincia De Buenos Aires,Calle 52 Entre 121 Y 122 C.C.128,,B1902WAB,221,4831141,direccion@lemit.gov.ar,http://www.lemit.gov.ar/index.php/biblioteca,,-34.8037343,-58.1828174,Localización precisa,RECIARIA,Público,Gubernamental,,CAICYT,Ciencia y Tecnología,2019
06441030,06,06441,,Bibliotecas Especializadas,,Buenos Aires,La Plata,La Plata,Biblioteca - Departamento De Física -Universidad Nacional De La Plata - Unlp,Calle 49 Y 115 C.C. 67,,1900,221,4246062,biblio@venus.fisica.unlp.edu.arinternet@exactas.unlp.edu.ar,http://biblio.fisica.unlp.edu.ar/cgi-bin/koha/opac-main.pl,,-34.9074550,-57.9430600,Localización precisa,RECIARIA,Público,Universidad,,CAICYT,Ciencia y Tecnología,2019
06441030,06,06441,,Bibliotecas Especializadas,,Buenos Aires,La Plata,La Plata,Biblioteca  Enrique V. Galli.Colegio De Abogados De La Plata,Calle 13 (ENTRE 48 Y 49) 821/829,Subsuelo,1900,221,5132210,biblioteca@calp.org.ar / rizurieta@calp.org.ar,http://www.calp.org.ar/informacionébiblioteca,,-34.9199235,-57.9565739,Localización precisa,RECIARIA,Privado,Asociación,,BibliotecasJuriRed,Derecho y Ciencias Jurídicas,2019
06441030,06,06441,,Bibliotecas Especializadas,,Buenos Aires,La Plata,La Plata,Biblioteca - Facultad De Ciencias Astronómicas Y Geofísicas -Universidad Nacional De La Plata - Unlp,Paseo del Bosque s/n,,B1900FWA,221,4236593,library@fcaglp.fcaglp.unlp.edu.ar; bibliotecafcaglp@yahoo.com.ar,http://www.fcaglp.unlp.edu.ar/biblioteca/pagina-de-la-biblioteca,,-34.9102755,-57.9409429,Localización precisa,RECIARIA,Público,Universidad,,CAICYT,Ciencia y Tecnología,2019
06441030,06,06441,,Bibliotecas Especializadas,,Buenos Aires,La Plata,La Plata,Biblioteca - Facultad De Ciencias Jurídicas Y Sociales - Universidad Nacional De La Plata,48 Entre 6 Y 7,,1900,221,4236701,biblioteca@jursoc.unlp.edu.ar; edugini@jursoc.unlp.edu.ar,http://www.jursoc.unlp.edu.ar/index.php?option=com_content&task=blogcategory&id=31&Itemid=178,,-34.9131940,-57.9508050,Localización precisa,RECIARIA,Público,Universidad,Facultad De Ciencias Jurídicas Y Sociales - Universidad Nacional De La Plata,SIU,Multidiciplinaria,2019
06441030,06,06441,,Bibliotecas Especializadas,,Buenos Aires,La Plata,La Plata,Biblioteca - Facultad De Ingeniería - Universidad Nacional De La Plata,Calle 115 y 47,,1900,221,4236686 int.118,bibcentral@ing.unlp.edu.ar,http://biblio.ing.unlp.edu.ar/,,-34.9064940,-57.9449830,Localización precisa,RECIARIA,Público,Universidad,Facultad De Ingenieria - Universidad Nacional De La Plata,SIDALC,Ciencias Agronómicas y Forestales,2019
06441030,06,06441,,Bibliotecas Especializadas,,Buenos Aires,La Plata,La Plata,Biblioteca - Facultad De Odontología -Universidad Nacional De La Plata,Av. 51 entre 1 y 115,,1900,221,4236775,biblio@venus.fisica.unlp.edu.arinternet@exactas.unlp.edu.ar,http://www.folp.unlp.edu.ar/biblioteca.html,,-34.9097010,-57.9429210,Localización precisa,RECIARIA,Público,Universidad,,CAICYT,Ciencia y Tecnología,2019
06441030,06,06441,,Bibliotecas Especializadas,,Buenos Aires,La Plata,La Plata,Biblioteca - Federación Bioquímica De La Provincia De Buenos Aires,Calle 6 1344,4,,221,4838821 int.234,bibliote@fbpba.org.ar.,http://www.faba.org.ar/pSACTinfoGral.asp,,-34.9196660,-57.9408710,Localización precisa,RECIARIA,Privado,Asociación,Federación Bioquímica De La Provincia De Buenos Aires,BIBLIOMED,Medicina,2019
06441030,06,06441,,Bibliotecas Especializadas,,Buenos Aires,La Plata,La Plata,Biblioteca - Hospital Zonal Especializado Dr. Noel H. Sbarra,Calle 8 1689,,B1900CMK,221,4573497 int.140,sbarra@way.com.ar,http://www.hospitalsbarra.com.ar/academica.htm,,-34.9276400,-57.9351070,Localización precisa,RECIARIA,Público,Hospital,"Hospital Zonal Especializado ""Dr. Noel H. Sbarra""",RENICS / BIBLIOMED,Medicina,2019
06441030,06,06441,,Bibliotecas Especializadas,,Buenos Aires,La Plata,La Plata,Biblioteca - Instituto De Estudios Del Hábitat - Universidad Nacional De La Plata - Unlp -,Calle 47 Nro.162 C.C. 478,,B1902WAE,221,4236587,czajko@isis.unlp.edu.arbiblio@arqui.farulp.unlp.edu.ar,http://biblio.unlp.edu.ar/,,-34.9052280,-57.9432400,Localización precisa,RECIARIA,Público,Universidad,,CAICYT,Ciencia y Tecnología,2019
06441030,06,06441,,Bibliotecas Especializadas,,Buenos Aires,La Plata,La Plata,Biblioteca - Liceo Víctor Mercante,Diagonal 77 Nº 352,,,221,4236707,biblioteca@lvm.unlp.edu.ar,http://www.lvm.unlp.edu.ar/,,-34.9100700,-57.9496800,Localización precisa,RECIARIA,Público,Universidad,,CAICYT,Ciencia y Tecnología,2019
06441030,06,06441,,Bibliotecas Especializadas,,Buenos Aires,La Plata,La Plata,Biblioteca - Universidad Nacional De La Plata. Facultad De Arquitectura Y Urbanismo,Calle 47 162,,B1900GGD,221,4236587,biblio@arqui.farulp.unlp.edu.ar (no) sce@fau.unlp.edu.ar; bibliofau@fau.unlp.edu.ar (no),www.fau.unlp.edu.ar/biblioteca,,-34.9049661,-57.9424730,Localización precisa,RECIARIA,Público,Universidad,Facultad de Arquitectura y Urbanismo. Universidad Nacional de La Plata,VITRUVIO,"Arquitectura, Artes, Diseño y Urbanismo",2019
06441030,06,06441,,Bibliotecas Especializadas,,Buenos Aires,La Plata,La Plata,"Biblioteca ""Edgardo Augusto Scotti"". Dirección Provincial Del Registro De La Propiedad. Instituto Superior De Registración Y Publicidad Inmobiliaria",Calle 43 482,1,1900,221,4292500 int.2787,biblioteca@rpba.gov.ar / diegonranea@yahoo.com.ar,http://servicios.rpba.gov.ar/biblioteca/principal.html?seccion=his,,-34.9075715,-57.9540016,Localización precisa,RECIARIA,Público,Gubernamental,,BibliotecasJuriRed,Derecho y Ciencias Jurídicas,2019
06441030,06,06441,,Bibliotecas Especializadas,,Buenos Aires,La Plata,La Plata,"Biblioteca ""Profesor Guillermo Obiols"" de la Facultad de Humanidades y Ciencias de la Educación de la Universidad Nacional de La Plata",48 E/ 6 Y 7,Subsuelo,B1900AMW,221,4235745,bibhuma@fahce.unlp.edu.ar,http://www.fahce.unlp.edu.ar/biblioteca,,-34.9131940,-57.9508050,Localización precisa,RECIARIA,Público,Universidad,,CAICYT,Ciencia y Tecnología,2019
06441030,06,06441,,Bibliotecas Especializadas,,Buenos Aires,La Plata,La Plata,Biblioteca CENEXA,Calles 60 y 120 s.n.,,1900,221,4236712,direccion@cenexa.org,http://www.cenexa.org/,,-34.8898800,-57.9547100,Localización precisa,RECIARIA,Público,Universidad,,CAICYT,Ciencia y Tecnología,2019
06441030,06,06441,,Bibliotecas Especializadas,,Buenos Aires,La Plata,La Plata,Biblioteca Central,Calle 13 770,P.B.,1900,221,4121842,cnrios@colescba.org.ar,www.colescba.org.ar/html/biblioteca/informacion.htm,,-34.9189520,-57.9579380,Localización precisa,RECIARIA,Privado,Asociación,Colegio De Escribanos De La Provincia De Buenos Aires,UNIRED,Ciencias Sociales,2019
06441030,06,06441,,Bibliotecas Especializadas,,Buenos Aires,La Plata,La Plata,Biblioteca Central - Universidad Católica De La Plata,57 Nº 936,,B1900BNL,221,427100 int.1140,biblioteca@ucalp.edu.ar; javier.irazu@ucalp.edu.ar(MAIL DIRECTOR),http://www.ucalp.edu.ar/,,-34.9248210,-57.9515750,Localización precisa,RECIARIA,Privado,Universidad,Universidad Católica De La Plata,AMICUS,Bibliotecología y Ciencias de la Información,2019
06441030,06,06441,,Bibliotecas Especializadas,,Buenos Aires,La Plata,La Plata,Biblioteca Central de la Facultad de Ciencias Exactas,47 y 115,,1900,221,4226979 int.129,biblio@exactas.unlp.edu.ar,http://biblio.exactas.unlp.edu.ar/,,-34.9064940,-57.9449830,Localización precisa,RECIARIA,Público,Universidad,,CAICYT,Ciencia y Tecnología,2019
06441030,06,06441,,Bibliotecas Especializadas,,Buenos Aires,La Plata,La Plata,Biblioteca Central Para Médicos,Calle 14 (e/ 63 y 61) 1631,,1900,221,4535901,sbarra@way.com.ar,,,-34.9325905,-57.9440969,Localización precisa,RECIARIA,Público,Hospital,"Hospital De NiñOs ""Sor María Ludovica""",BIBLIOMED,Medicina,2019
06441030,06,06441,,Bibliotecas Especializadas,,Buenos Aires,La Plata,La Plata,Biblioteca Central. Universidad Católica de La Plata (UCALP),Calle 57 936,,1900,221,4227100 in.1140,biblioteca@ucalp.edu.ar,http://www.ucalp.edu.ar/biblioteca-informaci%C3%B3n-general,,-34.9248108,-57.9515897,Localización precisa,RECIARIA,Privado,Universidad,,BibliotecasJuriRed,Derecho y Ciencias Jurídicas,2019
06441030,06,06441,,Bibliotecas Especializadas,,Buenos Aires,La Plata,La Plata,Biblioteca Central. Universidad Nacional De La Plata,Plaza Rocha 137,,1900,221,4236608,secretaria@biblio.unlp.edu.ar / referencia@biblio.unlp.edu.ar / directora@biblio.unlp.edu.ar / centrodoc@biblio.unlp.edu.ar,http://biblio.unlp.edu.ar/,,-34.9215059,-57.9410227,Localización precisa,RECIARIA,Público,Universidad,,BibliotecasJuriRed / ROBLE,Derecho y Ciencias Jurídicas / Multidiciplinaria,2019
06441030,06,06441,,Bibliotecas Especializadas,,Buenos Aires,La Plata,La Plata,Biblioteca Dag,Calle 60 Y 119,,1900,221,4236719,biblio@ceres.agro.unlp.edu.ar; biblio@ceres.agro.unlp.edu.ar,,,-34.5829962,-58.5519562,Localización precisa,RECIARIA,Público,Universidad,Facultad de Ciencias Agrarias y Forestales. Universidad Nacional de La Plata,ROBLE,Multidiciplinaria,2019
06441030,06,06441,,Bibliotecas Especializadas,,Buenos Aires,La Plata,La Plata,Biblioteca Dag,Calle 60 Y 119 469,,1900,221,423 6758,bibbosques@ceres.agro.unlp.edu.ar,http://www.agro.unlp.edu.ar/index.php?nContent=B1,,-34.9103640,-57.9302650,Localización precisa,RECIARIA,Público,Universidad,Facultad De Ciencias Agrarias Y Forestales - Departamentos De Bosques -Universidad Nacional De La Plata -,ROBLE,Multidiciplinaria,2019
06441030,06,06441,,Bibliotecas Especializadas,,Buenos Aires,La Plata,La Plata,Biblioteca Dalmacio Vélez Sarsfield. Colegio De Escribanos De La Provincia De Buenos Aires,Calle 13 770,P.B.,1900,221,4121842,biblioteca@colescba.org.ar,http://www.colescba.org.ar/portal/organismos/biblioteca-juridica-central.html,,-37.8474122,-58.2501778,Localización precisa,RECIARIA,Público,Asociación,,BibliotecasJuriRed,Derecho y Ciencias Jurídicas,2019
06441030,06,06441,,Bibliotecas Especializadas,,Buenos Aires,La Plata,La Plata,Biblioteca Daq,Calle 47 162,,1900,221,4236587 int.240,biblio@arqui.farunlp.edu.ar,http://www.fau.unlp.edu.ar/biblioteca/,,-34.9052280,-57.9432400,Localización precisa,RECIARIA,Público,Universidad,Facultad de Arquitectura y Urbanismo. Universidad Nacional de La Plata,ROBLE,Multidiciplinaria,2019
06441030,06,06441,,Bibliotecas Especializadas,,Buenos Aires,La Plata,La Plata,Biblioteca Das,Paseo del Bosque s/n,,1900,221,4236593,library@fcaglp.fcaglp.unlp.edu.ar; bibliotecafcaglp@yahoo.com.ar,http://www.roble.unlp.edu.ar/,,-34.9090270,-57.9353750,Localización precisa,RECIARIA,Público,Universidad,Facultad De Ciencias Astronómicas Y Geofísicas -Universidad Nacional De La Plata -,ROBLE,Multidiciplinaria,2019
06441030,06,06441,,Bibliotecas Especializadas,,Buenos Aires,La Plata,La Plata,Biblioteca Dba,Calle 61 649,,1900,221,4236595,library@fcaglp.fcaglp.unlp.edu.ar; bibliotecafcaglp@yahoo.com.ar,,,-34.9225410,-57.9414810,Localización precisa,RECIARIA,Público,Universidad,Bachillerato E Bellas Arte Francisco De Santos -Universidad Nacional De La Plata,ROBLE,Multidiciplinaria,2019
06441030,06,06441,,Bibliotecas Especializadas,,Buenos Aires,La Plata,La Plata,Biblioteca Dca,Calle 47 257,,1900,221,4210711,bcindeca@dalton.quimica.unlp.edu.ar,http://www.quimica.unlp.edu.ar/,,-34.9066330,-57.9452850,Localización precisa,RECIARIA,Público,Universidad,Facultad De Ciencias Exactas - Centro De Investigación Y Desarrollo En Procesos Catalíticos - Cindeca - Universidad Nacional De La Plata,ROBLE,Multidiciplinaria,2019
06441030,06,06441,,Bibliotecas Especializadas,,Buenos Aires,La Plata,La Plata,Biblioteca Dcr,Calle 47 Y 116,,1900,221,4249287,cidcabiblioteca@cidca.org.ar,http://www.cidca.org.ar/biblioteca.htm,,-34.9057770,-57.9440020,Localización precisa,RECIARIA,Público,Universidad,Centro De Investigación Y Desarrollo En Criotecnología De Alimentos - Cidca -Universidad Nacional De La Plata -,ROBLE,Multidiciplinaria,2019
06441030,06,06441,,Bibliotecas Especializadas,,Buenos Aires,La Plata,La Plata,"Biblioteca De Ciencias Penales ""Dr. Raúl Vogt"". Cámara Tribunal De La Plata. Ciencias Penales",Calle 7 e/56 y 57,1,1900,221,4102584,biblioteca-penal@jusbuenosaires.gov.ar / msal@jusbuenosaires.gov.ar,http://www.scba.gov.ar/biblioteca/default.asp,,-38.0579057,-57.5697322,Localización precisa,RECIARIA,Público,Justicia,,BibliotecasJuriRed,Derecho y Ciencias Jurídicas,2019
06441030,06,06441,,Bibliotecas Especializadas,,Buenos Aires,La Plata,La Plata,Biblioteca De Humanidades [Bibhuma],Calle 48 E/6 Y 7,Subsuelo,1900,221,4235745,bibhuma@fahce.unlp.edu.ar,www.bibhuma.fahce.unlp.edu.ar,,-34.9136623,-57.9511653,Localización precisa,RECIARIA,Público,Universidad,Facultad de Humanidades y Ciencias de la Educación. Universidad Nacional de La Plata,SIU / UNIRED,Multidiciplinaria / Ciencias Sociales,2019
06441030,06,06441,,Bibliotecas Especializadas,,Buenos Aires,La Plata,La Plata,Biblioteca De Integración Latinoamericana,Calle 10 Nro 1074,,B1900,221,4213202,integra@netverk.com.ar,http://www.iil.jursoc.unlp.edu.ar/,,-34.9198010,-57.9499080,Localización precisa,RECIARIA,Público,Universidad,,CAICYT,Ciencia y Tecnología,2019
06441030,06,06441,,Bibliotecas Especializadas,,Buenos Aires,La Plata,La Plata,Biblioteca de la Facultad de Bellas Artes “Fernán Félix de Amador”,Diagonal 78 N° 680,,1900,221,4237548 int.123,biblioteca@fba.unlp.edu.ar,http://bibliofba.unlp.edu.ar/,,-34.9228390,-57.9419870,Localización precisa,RECIARIA,Público,Universidad,Universidad Nacional de La Plata,VITRUVIO,"Arquitectura, Artes, Diseño y Urbanismo",2019
06441030,06,06441,,Bibliotecas Especializadas,,Buenos Aires,La Plata,La Plata,Biblioteca de la Facultad de Periodismo de la Universidad Nacional de La Plata,Diagonal 113 Nº 291,P.B.,B1900AMX,221,4250133 int.160,cdm@perio.unlp.edu.ar,http://perio.unlp.edu.ar/node/254,,-34.9128750,-57.9266600,Localización precisa,RECIARIA,Público,Universidad,,CLACSO,Ciencias Sociales,2019
06441030,06,06441,,Bibliotecas Especializadas,,Buenos Aires,La Plata,La Plata,Biblioteca de la Facultad de Psicología de la Universidad Nacional de La Plata,Calle 48 entre 6 y 7,Subsuelo,B1900AMX,221,4235745 int.160,bibhuma@fahce.unlp.edu.ar,http://www.psico.unlp.edu.ar/biblioteca,,-34.9136623,-57.9511653,Localización precisa,RECIARIA,Público,Universidad,,CLACSO,Ciencias Sociales,2019
06441030,06,06441,,Bibliotecas Especializadas,,Buenos Aires,La Plata,La Plata,"Biblioteca De La Sociedad Entomológica Argentina ""Dr. Alberto Breyer""",Paseo del Bosque s/n,,B1900FWA,221,4257744 int.115,bibsea@fcnym.unlp.edu.ar,http://seargentina.myspecies.info/node/4,,-34.9090270,-57.9353750,Localización precisa,RECIARIA,Privado,Asociación,,CAICYT,Ciencia y Tecnología,2019
06441030,06,06441,,Bibliotecas Especializadas,,Buenos Aires,La Plata,La Plata,Biblioteca Del Centro Del Instituto Y Desarrollo En Criotecnologia De Alimentos,Calle 47 Y 116,,B1900WAF,221,4249287,cidcabiblioteca@cidca.org.ar,http://www.cidca.org.ar/biblioteca.html,,-34.9057770,-57.9440020,Localización precisa,RECIARIA,Público,Gubernamental,,CAICYT,Ciencia y Tecnología,2019
06441030,06,06441,,Bibliotecas Especializadas,,Buenos Aires,La Plata,La Plata,Biblioteca Del CEQUINOR,Calle 47 Esq 115,,B1900WAJ,221,4240172,cequinor@quimica.unlp.edu.ar,http://cequinor.quimica.unlp.edu.ar/biblioteca,,-34.9064940,-57.9449830,Localización precisa,RECIARIA,Público,Gubernamental,,CAICYT,Ciencia y Tecnología,2019
06441030,06,06441,,Bibliotecas Especializadas,,Buenos Aires,La Plata,La Plata,Biblioteca del Instituto de Cultura Jurídica – ICJ,Calle 48 nro. 582 e/ 6 y 7,3,B1900AMX,221,4236701int.123,biblio@fcjs.unl.edu.ar,http://www.icj.jursoc.unlp.edu.ar/index.php/biblioteca,,-34.9133320,-57.9503270,Localización precisa,RECIARIA,Público,Universidad,,CLACSO,Ciencias Sociales,2019
06441030,06,06441,,Bibliotecas Especializadas,,Buenos Aires,La Plata,La Plata,Biblioteca Dem,Calle 50 Y 115,,1900,221,4229850,biblioteca@cacho.mate.unlp.edu.ar,http://www.roble.unlp.edu.ar/,,-34.9077880,-57.9423900,Localización precisa,RECIARIA,Público,Universidad,Facultad De Ciencias Exactas - Departamento De Matemáticas - Universidad Nacional De La Plata,ROBLE,Multidiciplinaria,2019
06441030,06,06441,,Bibliotecas Especializadas,,Buenos Aires,La Plata,La Plata,Biblioteca Deo,Calle 48 entre 6 y 7,Subsuelo,B1900AMX,221,4236771,fernanda@econo.unlp.edu.ar,http://www.econo.unlp.edu.ar/biblioteca,,-34.9121130,-57.9510380,Localización precisa,RECIARIA,Público,Universidad,Facultad De Ciencias Económicas- Universidad Nacional De La Plata,ROBLE,Multidiciplinaria,2019
06441030,06,06441,,Bibliotecas Especializadas,,Buenos Aires,La Plata,La Plata,Biblioteca Dfc,Calle 49 Y 115 S/N,,1900,221,4246062 int.237,biblio@fisica.unlp.edu.ar < biblio@fisica.unlp.edu.ar>,http://biblio.fisica.unlp.edu.ar/,,-34.9074550,-57.9430600,Localización precisa,RECIARIA,Público,Universidad,Facultad De Ciencias Exactas - Departamento De Física -Universidad Nacional De La Plata-,ROBLE,Multidiciplinaria,2019
06441030,06,06441,,Bibliotecas Especializadas,,Buenos Aires,La Plata,La Plata,Biblioteca Dgr. Escuela Graduada Joaquín V. González. Universidad Nacional de La Plata,Calle 50 Entre 117 7 118,,1900,221,4236700,araujo_cris@hotmail.com,,,-34.9054893,-57.9431224,Localización precisa,RECIARIA,Público,Universidad,Escuela Graduada Joaquín V. Gonzalez -Universidad Nacional De La Plata -,ROBLE,Multidiciplinaria,2019
06441030,06,06441,,Bibliotecas Especializadas,,Buenos Aires,La Plata,La Plata,Biblioteca Dhu - Bibhuma,Calle 48 entre 6 y 7,Subsuelo,B1900AMX,221,4235745,bibhuma@fahce.unlp.edu.ar,http://www.bibhuma.fahce.unlp.edu.ar/,,-34.9131940,-57.9508050,Localización precisa,RECIARIA,Público,Universidad,Facultad de Humanidades y Ciencias de la Educación. Universidad Nacional de La Plata,ROBLE,Multidiciplinaria,2019
06441030,06,06441,,Bibliotecas Especializadas,,Buenos Aires,La Plata,La Plata,Biblioteca Djr,Calle 48 entre 6 y 7,Subsuelo,B1900AMX,221,4236701,biblio@der.jursoc.unlp.edu.ar,http://der.jursoc.unlp.edu.ar/,,-34.9136623,-57.9511653,Localización precisa,RECIARIA,Público,Universidad,Facultad De Ciencias Jurídicas Y Sociales -Universidad Nacional De La Plata -,ROBLE,Multidiciplinaria,2019
06441030,06,06441,,Bibliotecas Especializadas,,Buenos Aires,La Plata,La Plata,Biblioteca Dli,Diagonal 77 Entre 4 Y 5 352,,1900,221,4236707,graselena@hotmail.com,,,-34.9102800,-57.9503250,Localización precisa,RECIARIA,Público,Universidad,Liceo Victor Mercante -Universidad Nacional De La Plata,ROBLE,Multidiciplinaria,2019
06441030,06,06441,,Bibliotecas Especializadas,,Buenos Aires,La Plata,La Plata,Biblioteca Dma,Calle 115 y 47,,1900,221,4254533,biblioteca@exactas.unlp.edu.ar,http://www.roble.unlp.edu.ar/,,-34.9064940,-57.9449830,Localización precisa,RECIARIA,Público,Universidad,Facultad De Ciencias Exactas -Universidad Nacional De La Plata-,ROBLE,Multidiciplinaria,2019
06441030,06,06441,,Bibliotecas Especializadas,,Buenos Aires,La Plata,La Plata,Biblioteca Dmd,Calle 60 Y 120,,1900,221,4236711,biblio@atlas.med.unlp.edu.ar,http://www.med.unlp.edu.ar/biblioteca,,-34.9095060,-57.9295830,Localización precisa,RECIARIA,Público,Universidad,Facultad de Ciencias Medicas. Universidad Nacional de La Plata,ROBLE,Multidiciplinaria,2019
06441030,06,06441,,Bibliotecas Especializadas,,Buenos Aires,La Plata,La Plata,Biblioteca Doo,Calle 51 Entre 1 Y 115,,1900,221,4236776,crismorra@yahoo.com.ar,,,-34.9097010,-57.9429210,Localización precisa,RECIARIA,Público,Universidad,Facultad De Odontología -Universidad Nacional De La Plata,ROBLE,Multidiciplinaria,2019
06441030,06,06441,,Bibliotecas Especializadas,,Buenos Aires,La Plata,La Plata,Biblioteca Dr. Aníbal E. Inchausti,Calle 13 680,Subsuelo,B1900TLC,221,4227471 int.203,biblioteca@solp.org.ar; info@solp.org.ar,http://www.solp.org.ar/biblioteca.php,,-34.9176240,-57.9597060,Localización precisa,RECIARIA,Privado,Asociación,Sociedad Odontológica De La Plata,RENICS / BIBLIOMED,Medicina,2019
06441030,06,06441,,Bibliotecas Especializadas,,Buenos Aires,La Plata,La Plata,Biblioteca Dts,Calle 9 Y 63,,1900,221,4519705,biblioteca@trabajosocial.unlp.edu.ar,http://www.trabajosocial.unlp.edu.ar/,,-34.9253450,-57.9403150,Localización precisa,RECIARIA,Público,Universidad,Facultad De Trabajo Social -Universidad Nacional De La Plata,ROBLE,Multidiciplinaria,2019
06441030,06,06441,,Bibliotecas Especializadas,,Buenos Aires,La Plata,La Plata,Biblioteca Dve,Calle 60 7Y 118,,1900,221,4247642,cristina@fcv.unlp.edu.ar,,,-34.9110240,-57.9309410,Localización precisa,RECIARIA,Público,Universidad,Facultad De Ciencias Veterinarias -Universidad Nacional De La Plata -,ROBLE,Multidiciplinaria,2019
06441030,06,06441,,Bibliotecas Especializadas,,Buenos Aires,La Plata,La Plata,Biblioteca Erick J. F. D'Ovidio,Calle 27 Y 70,4,1900,221,4575454,bibliotecahsjd@gmail.com,,,-34.9481760,-57.9508190,Localización precisa,RECIARIA,Público,Hospital,Hospital Interzonal Especializado De Agudos Y Crónicos San Juan De Dios,RENICS,Medicina,2019
06441030,06,06441,,Bibliotecas Especializadas,,Buenos Aires,La Plata,La Plata,Biblioteca FAU-UNLP,47 Nº 162,,1900,221,4236587 int.240,bibliofau@fau.unlp.edu.ar,http://www.biblio.fau.unlp.edu.ar/,,-34.9049100,-57.9424300,Localización precisa,RECIARIA,Público,Universidad,Facultad de Arquitectura y Urbanismo. Universidad Nacional de La Plata,BIBLIOFAUN,"Arquitectura, Artes, Diseño y Urbanismo",2019
06441030,06,06441,,Bibliotecas Especializadas,,Buenos Aires,La Plata,La Plata,Biblioteca Fernán Félix De Amador - Dar,Diagonal 78 680,,1900,221,4235756,biblioteca@fba.unlp.edu.ar,http://www.fba.unlp.edu.ar/biblioteca.html,,-34.9223390,-57.9417890,Localización precisa,RECIARIA,Público,Universidad,Facultad De Bellas Artes -Universidad Nacional De La Plata -,ROBLE,Multidiciplinaria,2019
06441030,06,06441,,Bibliotecas Especializadas,,Buenos Aires,La Plata,La Plata,Biblioteca Florentino Ameghino,Paseo del Bosque s/n,,B1900FWA,221,4257744,biblio@museo.fcnym.unlp.edu.ar,http://www.bfa.fcnym.unlp.edu.ar,,-34.9090270,-57.9353750,Localización precisa,RECIARIA,Público,Universidad,Facultad de Ciencias Naturales y Museo. Universidad Nacional de La Plata,ASFIS-REDIPES / ROBLE,Ciencias Acuáticas y Pesqueras / Multidisciplinaria,2019
06441030,06,06441,,Bibliotecas Especializadas,,Buenos Aires,La Plata,La Plata,Biblioteca Florentino Ameghino - Facultad De Ciencias Naturales Y Museo -Universidad Nacional De La Plata - UNLP,Av. 60 sn,,1900,221,4257744 int.115,biblio@fcnym.unlp.edu.ar,http://www.bfa.fcnym.unlp.edu.ar,,-34.9093310,-57.9261430,Localización precisa,RECIARIA,Público,Universidad,,CAICYT,Ciencia y Tecnología,2019
06441030,06,06441,,Bibliotecas Especializadas,,Buenos Aires,La Plata,La Plata,Biblioteca Forestal,Calle 60 Y 119,,190O,,,bibbosques@ceres.agro.unlp.edu.ar,http://www.agro.unlp.edu.ar/index.php?nContent=B1,,-34.5829962,-58.5519562,Localización precisa,RECIARIA,Público,Universidad,Escuela De Bosques - Universidad Nacional De La Plata,SIDALC,Ciencias Agronómicas y Forestales,2019
06441030,06,06441,,Bibliotecas Especializadas,,Buenos Aires,La Plata,La Plata,Biblioteca Hospital De Niños Sor María Ludovica,Calle 14 1361,1,,221,4276131,bludovica_sap@hotmail.com  mgguidoni@yahoo.com.ar,www.ludovica.org.ar,,-34.9278840,-57.9485790,Localización precisa,RECIARIA,Público,Hospital,"Hospital Interzonal De Agudos En Pediatría ""Sor María Ludovica""",RENICS,Medicina,2019
06441030,06,06441,,Bibliotecas Especializadas,,Buenos Aires,La Plata,La Plata,Biblioteca Informática,Calle 115 Entre 49 Y 50,,1900,221,4277271,extension@info.unlp.edu.ar,,,-34.9077320,-57.9426640,Localización precisa,RECIARIA,Público,Universidad,Facultad De Informática - Universidad Nacional De La Plata,ROBLE,Multidiciplinaria,2019
06441030,06,06441,,Bibliotecas Especializadas,,Buenos Aires,La Plata,La Plata,Biblioteca Instituto de Física de Líquidos y Sistemas Biológicos,Calle 59 No. 789,,B1900BTE,221,4233283,iflysib@iflysib.unlp.edu.aroscalise@iflysib.unlp.edu.ar,http://iflysib.unlp.edu.ar/publicaciones/,,-34.9235830,-57.9466030,Localización precisa,RECIARIA,Público,Gubernamental,,CAICYT,Ciencia y Tecnología,2019
06441030,06,06441,,Bibliotecas Especializadas,,Buenos Aires,La Plata,La Plata,Biblioteca Islas Malvinas,60 y 120,,B1902WAE,221,4241596 Int. 356,biblio@med.unlp.edu.ar,http://www.med.unlp.edu.ar/index.php/biblioteca3,,-34.9095060,-57.9295830,Localización precisa,RECIARIA,Público,Universidad,,CAICYT,Ciencia y Tecnología,2019
06441030,06,06441,,Bibliotecas Especializadas,,Buenos Aires,La Plata,La Plata,Biblioteca Islas Malvinas,Calle 60 Y 120,,1900,,423 6711,biblio@med.unlp.edu.ar,,,-34.9095060,-57.9295830,Localización precisa,RECIARIA,Público,Universidad,Facultad De Ciencias Medicas,BIBLIOMED,Medicina,2019
06441030,06,06441,,Bibliotecas Especializadas,,Buenos Aires,La Plata,La Plata,Biblioteca Joaquín V. GonzLez.Facultad De Ciencias Jurídicas Y Sociales. Universidad Nacional De La Plata Unlp.,Calle 48 entre 6 Y 7,Subsuelo,1900,221,4236701 int.134,biblioteca@jursoc.unlp.edu.ar / edugini@jursoc.unlp.edu.ar,http://www.jursoc.unlp.edu.ar/index.php?option=comécontent&task=blogcategory&id=31&Itemid=178,,-34.9136623,-57.9511653,Localización precisa,RECIARIA,Público,Universidad,,BibliotecasJuriRed,Derecho y Ciencias Jurídicas,2019
06441030,06,06441,,Bibliotecas Especializadas,,Buenos Aires,La Plata,La Plata,Biblioteca Julio R. Castiñeiras - Dig,Calle 115 y 47,,1900,221,4236685 int.118,bibcentral@volta.ing.unlp.edu.ar,http://www.ing.unlp.edu.ar/bibcent/,,-34.9064940,-57.9449830,Localización precisa,RECIARIA,Público,Universidad,Facultad De Ingeniería - Universidad Nacional De La Plata,ROBLE,Multidiciplinaria,2019
06441030,06,06441,,Bibliotecas Especializadas,,Buenos Aires,La Plata,La Plata,Biblioteca Prof. Dr. Antonio E. Rodríguez,Calle 59 No. 789,,B1900BTE,221,4233283,iflysib@iflysib.unlp.edu.ar,http://iflysib.unlp.edu.ar/,,-34.9235470,-57.9466160,Localización precisa,RECIARIA,Público,Gubernamental,,CAICYT,Ciencia y Tecnología,2019
06441030,06,06441,,Bibliotecas Especializadas,,Buenos Aires,La Plata,La Plata,Biblioteca Pública Dardo Rocha,Plaza Rocha 137,,1900,221,423 6607,directora@biblio.unlp.edu.ar; biblio@isis.unlp.edu.ar,www.biblio.unlp.edu.ar/new/index.html,,-34.9216730,-57.9412590,Localización precisa,RECIARIA,Público,Universidad,Universidad Nacional de La Plata,SIU / CAICYT,Multidiciplinaria / Ciencia y Tecnología,2019
06441030,06,06441,,Bibliotecas Especializadas,,Buenos Aires,La Plata,La Plata,Biblioteca Pública De La Legislatura. Honorable Cámara De Senadores. Comis Bicameral.,Calle 8 entre 51 Y 53,,1900,221,4291200,biblioteca@senado-ba.gov.ar / refbiblio@senado-ba.gov.ar,http://biblioteca.senado-ba.gob.ar/index.aspx,,-34.9172705,-57.9488123,Localización precisa,RECIARIA,Público,Gubernamental,,BibliotecasJuriRed,Derecho y Ciencias Jurídicas,2019
06441030,06,06441,,Bibliotecas Especializadas,,Buenos Aires,La Plata,La Plata,Biblioteca Sergio Karakachoff - Dcn,Calle 1 Y 49,,1900,221,4236844 int.41,biblioteca@nacio.unlp.edu.ar,,,-34.9087340,-57.9443430,Localización precisa,RECIARIA,Público,Universidad,Colegio Nacional Rafael Hernandez - Universidad Nacional De La Plata -,ROBLE,Multidiciplinaria,2019
06441030,06,06441,,Bibliotecas Especializadas,,Buenos Aires,La Plata,La Plata,Biblioteca y Centro de Documentación,Calle 526 Entre 10 Y 11,,,221,4271689,mslabcen@ms.gba.gov.ar,www.ms.gba.gov.ar,,-34.8991910,-57.9798780,Localización precisa,RECIARIA,Público,Gubernamental,Dirección Del Laboratorio Central De Salud Pública.  Ministerio De Salud De La Provincia De Buenos Aires -,BIBLIOMED / RENICS,Medicina,2019
06441030,06,06441,,Bibliotecas Especializadas,,Buenos Aires,La Plata,La Plata,Biblioteca y Centro de Documentación,Calle 8 Entre 45 Y 46,1,1900,221,4294400 Int. 4702,cdmlp@speedy.com.ar,http://www.ec.gba.gov.ar/,,-34.9128360,-57.9545940,Localización precisa,RECIARIA,Público,Gubernamental,,CAICYT / UNIRED,Ciencia y Tecnología / Ciencias Sociales,2019
06441030,06,06441,,Bibliotecas Especializadas,,Buenos Aires,La Plata,La Plata,Biblioteca y Centro de Documentación,Calle 5 No. 473 E/ 42 Y 43,,B1902CKS,221,4232712,femebaciudad@infovia.com.ar; cid@fundacion.femeba.org.ar,http://biblio.femeba.org.ar/site/php/index.php,,-34.9067190,-57.9561260,Localización precisa,RECIARIA,Privado,Institución,,CAICYT,Ciencia y Tecnología,2019
06441030,06,06441,,Bibliotecas Especializadas,,Buenos Aires,La Plata,La Plata,Biblioteca y Centro de Documentación,Calle 54 (Entre 13 Y 14) 920,,B1902CKS,221,4256640,femebaciudad@infovia.com.ar; cid@fundacion.femeba.org.ar,http://biblio.femeba.org.ar/site/php/index.php,,-34.9231950,-57.9541010,Localización precisa,RECIARIA,Privado,Fundación,Fundación De La Federación Médica De La Prov. De Bs.As. Femeba,BIBLIOMED,Medicina,2019
06441030,06,06441,,Bibliotecas Especializadas,,Buenos Aires,La Plata,La Plata,Biblioteca y Centro de Documentación,Calle 60 Y 120,1,,221,4277399,bibliotecainus@inus.org.ar,www.inus.org.ar,,-34.9095060,-57.9295830,Localización precisa,RECIARIA,Público,Universidad,Centro Interdisciplinario Universitario Para La Salud (Inus).  Universidad Nacional De La Plata. Facultad De Ciencias Médicas.,RENICS,Medicina,2019
06441030,06,06441,,Bibliotecas Especializadas,,Buenos Aires,La Plata,La Plata,Biblioteca Y Centro De Información De Medicamentos Far-Maceúticos,Calle 5 966,,B1900DDP,221,4290960,biblioteca@colfarma.org.ar,www.colfarma.org.ar,,-34.9137380,-57.9465120,Localización precisa,RECIARIA,Privado,Asociación,Colegio de Farmacéuticos de la Provincia de Buenos Aires,BIBLIOMED / RENICS,Medicina,2019
06441030,06,06441,,Bibliotecas Especializadas,,Buenos Aires,La Plata,La Plata,Biblioteca. Cámara Federal De Apelaciones De La Plata (Pjn),Calle 8 entre 50 y 51 925,1,1900,221,4835983,maria.yagas@pjn.gov.ar julia.valdez@pjn.gov.ar,,,-34.9157075,-57.9507613,Localización precisa,RECIARIA,Público,Justicia,,BibliotecasJuriRed,Derecho y Ciencias Jurídicas,2019
06441030,06,06441,,Bibliotecas Especializadas,,Buenos Aires,La Plata,La Plata,Biblioteca. Caja De Previsión Social Para Abogados De La Provincia De Buenos Aires,AV. 13 821/29,3,1900,221,4270204,llunelli@cajaabogados.org.ar / psalviolo@cajaabogados.org.ar / info@cajaabogados.org.ar,http://www.cajaabogados.org.ar/,,-34.9067758,-57.9745316,Localización precisa,RECIARIA,Privado,Justicia,,BibliotecasJuriRed,Derecho y Ciencias Jurídicas,2019
06441030,06,06441,,Bibliotecas Especializadas,,Buenos Aires,La Plata,La Plata,Biblioteca. Facultad De Ciencias Agrarias y Forestales. Universidad Nacional De La Plata,Calle 60 Y 119,,190O,O221,4236758,bibbosques@ceres.agro.unlp.edu.ar,http://www.agro.unlp.edu.ar/index.php?nContent=B1,,-34.9103640,-57.9302650,Localización precisa,RECIARIA,Público,Universidad,,CAICYT / SIDALC,Ciencia y Tecnología / Ciencias Agronómicas y Forestales,2019
06441030,06,06441,,Bibliotecas Especializadas,,Buenos Aires,La Plata,La Plata,Biblioteca. Facultad De Ciencias Agrarias y Forestales. Universidad Nacional De La Plata,Calle 18 Y 60,,1900,,,boletinextension@agro.unlp.edu.ar,www.agro.unlp.edu.ar/institucional/biblioteca-conjunta,,-34.9312100,-57.9529640,Localización precisa,RECIARIA,Público,Universidad,Facultad de Ciencias Agrarias y Forestales. Universidad Nacional de La Plata,REDINFOR,Ciencias Agronómicas y Forestales,2019
06441030,06,06441,,Bibliotecas Especializadas,,Buenos Aires,La Plata,La Plata,Biblioteca. Facultad de Ciencias Veterinarias. Universidad Nacional de La Plata,60 Y 118,,B1900WAC,221,4247642,cristina@fcv.unlp.edu.aranalecta@fcv.medvet.unlp.edu.ar,http://www.fcv.unlp.edu.ar/index.php?option=com_content&view=article&id=618:informacion-general&catid=224&Itemid=687,,-34.9110240,-57.9309410,Localización precisa,RECIARIA,Público,Universidad,,CAICYT,Ciencia y Tecnología,2019
06441030,06,06441,,Bibliotecas Especializadas,,Buenos Aires,La Plata,La Plata,Biblioteca. Facultad de Ciencias Veterinarias. Universidad Nacional de La Plata,Calle 60 Y 118 S/N,,B1094AVW,221,4236663,cristina@fcv.unlp.edu.ar,www.fcv.unlp.edu.ar/biblioteca/general.php,,-34.9110240,-57.9309410,Localización precisa,RECIARIA,Público,Universidad,Facultad de Ciencias Veterinarias. Universidad Nacional de La Plata,RENICS,Medicina,2019
06441030,06,06441,,Bibliotecas Especializadas,,Buenos Aires,La Plata,La Plata,Biblioteca. Facultad De Periodismo y Comunicación Social. Universidad Nacional de La Plata,Calle 44 Entre 8 Y 9 676,,1900,221,4236783 int 39,cdm@perio.unlp.edu.ar,http://www.perio.unlp.edu.ar/biblioteca/,,-34.8536620,-58.0812030,Localización precisa,RECIARIA,Público,Universidad,Facultad De Periodismo Y Comunicación Social -Universidad Nacional De La Plata,ROBLE,Multidiciplinaria,2019
06441030,06,06441,,Bibliotecas Especializadas,,Buenos Aires,La Plata,La Plata,Biblioteca. Poder Ejecutivo. Buenos Aires. Secretaría Legal Y Técnica.,Calle 6 e/51 y 53,,1900,221,4294332,bibliotecaslytba@gmail.com / info@slyt.gba.gov.ar,,,-34.9142656,-57.9479861,Localización precisa,RECIARIA,Púbico,Gubernamental,,BibliotecasJuriRed,Derecho y Ciencias Jurídicas,2019
06441030,06,06441,,Bibliotecas Especializadas,,Buenos Aires,La Plata,La Plata,Centro de Documentación,Calle 17 Y 51,5,B1900AWW,221,4292980,pmidocumentacion@ms.gba.gov.ar ; pmidocumentacion@matinf.com.ar,www.ms.gba.gov.ar/programas/materno_infantil/index.html,,-34.9246200,-57.9595650,Localización precisa,RECIARIA,Público,Gubernamental,Ministerio De Salud.  Programa Materno Infantil,BIBLIOMED / RENICS,Medicina,2019
06441030,06,06441,,Bibliotecas Especializadas,,Buenos Aires,La Plata,La Plata,Centro de Documentación,Calle 2 Entre 63 Y 64 1519,,,,,cdmlp@netverk.com.ar; cdmlp@speedy.com.ar,www.amepla.com,,-34.9190790,-57.9326340,Localización precisa,RECIARIA,Privado,Institución,Centro de Documentación Médica de La Plata,BIBLIOMED / RENICS,Medicina,2019
